{"businesses": [{"id": "SwFMgircYqfuxULM79S_LQ", "alias": "big-acai-ames-ames", "name": "Big Acai Ames", "image_url": "https://s3-media3.fl.yelpcdn.com/bphoto/6lar_Wg1TTXTkcCXAQOFhA/o.jpg", "is_closed": false, "url": "https://www.yelp.com/biz/big-acai-ames-ames?adjust_creative=RyNyMQd7rvZeoBrbuIrc1w&utm_campaign=yelp_api_v3&utm_medium=api_v3_business_search&utm_source=RyNyMQd7rvZeoBrbuIrc1w", "review_count": 7, "categories": [{"alias": "acaibowls", "title": "Acai Bowls"}, {"alias": "cafes", "title": "Cafes"}, {"alias": "vegan", "title": "Vegan"}], "rating": 5.0, "coordinates": {"latitude": 42.02246, "longitude": -93.65468}, "transactions": ["pickup", "delivery"], "price": "$", "location": {"address1": "2702 Lincoln Way", "address2": "", "address3": null, "city": "Ames", "zip_code": "50014", "country": "US", "state": "IA", "display_address": ["2702 Lincoln Way", "Ames, IA 50014"]}, "phone": "+15157084488", "display_phone": "(515) 708-4488", "distance": 2194.1071347874913}, {"id": "4pdOUsgni7K7RE-T3uO_ww", "alias": "wingstop-ames", "name": "Wingstop", "image_url": "https://s3-media1.fl.yelpcdn.com/bphoto/oOpoP7coU8xrTCYE0A1VwQ/o.jpg", "is_closed": false, "url": "https://www.yelp.com/biz/wingstop-ames?adjust_creative=RyNyMQd7rvZeoBrbuIrc1w&utm_campaign=yelp_api_v3&utm_medium=api_v3_business_search&utm_source=RyNyMQd7rvZeoBrbuIrc1w", "review_count": 53, "categories": [{"alias": "chicken_wings", "title": "Chicken Wings"}], "rating": 2.5, "coordinates": {"latitude": 42.01568678951568, "longitude": -93.6113049296877}, "transactions": [], "price": "$", "location": {"address1": "703 S Duff Ave", "address2": "Ste 101", "address3": null, "city": "Ames", "zip_code": "50010", "country": "US", "state": "IA", "display_address": ["703 S Duff Ave", "Ste 101", "Ames, IA 50010"]}, "phone": "+15156639464", "display_phone": "(515) 663-9464", "distance": 1678.7036533731366}, {"id": "-9DH0hH8aJEyyIvGf0XGMw", "alias": "buffalo-wild-wings-ames", "name": "Buffalo Wild Wings", "image_url": "https://s3-media1.fl.yelpcdn.com/bphoto/0_O-uleDjx8khKMGEbz4YQ/o.jpg", "is_closed": false, "url": "https://www.yelp.com/biz/buffalo-wild-wings-ames?adjust_creative=RyNyMQd7rvZeoBrbuIrc1w&utm_campaign=yelp_api_v3&utm_medium=api_v3_business_search&utm_source=RyNyMQd7rvZeoBrbuIrc1w", "review_count": 65, "categories": [{"alias": "chicken_wings", "title": "Chicken Wings"}, {"alias": "tradamerican", "title": "American (Traditional)"}, {"alias": "sportsbars", "title": "Sports Bars"}], "rating": 2.0, "coordinates": {"latitude": 42.01907672158393, "longitude": -93.6095465795825}, "transactions": ["pickup", "delivery"], "price": "$$", "location": {"address1": "400 S Duff Ave", "address2": "", "address3": "", "city": "Ames", "zip_code": "50010", "country": "US", "state": "IA", "display_address": ["400 S Duff Ave", "Ames, IA 50010"]}, "phone": "+15152329464", "display_phone": "(515) 232-9464", "distance": 1639.3327344759198}, {"id": "2NmJMknViqoXpt208ut-ig", "alias": "w-and-z-mangolian-buffet-ames-2", "name": "W & Z Mangolian Buffet", "image_url": "https://s3-media2.fl.yelpcdn.com/bphoto/wq0XhMVsts3L8gpB_H3xog/o.jpg", "is_closed": false, "url": "https://www.yelp.com/biz/w-and-z-mangolian-buffet-ames-2?adjust_creative=RyNyMQd7rvZeoBrbuIrc1w&utm_campaign=yelp_api_v3&utm_medium=api_v3_business_search&utm_source=RyNyMQd7rvZeoBrbuIrc1w", "review_count": 65, "categories": [{"alias": "mongolian", "title": "Mongolian"}, {"alias": "buffets", "title": "Buffets"}, {"alias": "chinese", "title": "Chinese"}], "rating": 2.5, "coordinates": {"latitude": 42.0066074774389, "longitude": -93.6115398748069}, "transactions": ["delivery"], "price": "$$", "location": {"address1": "1620 S Kellogg Ave", "address2": "Ste 103", "address3": "", "city": "Ames", "zip_code": "50010", "country": "US", "state": "IA", "display_address": ["1620 S Kellogg Ave", "Ste 103", "Ames, IA 50010"]}, "phone": "+15152322338", "display_phone": "(515) 232-2338", "distance": 2378.7420959372953}, {"id": "KC4ZxMqgoX7xyoeFpsRNTQ", "alias": "las-palmas-mexican-restaurant-and-grill-ames", "name": "Las Palmas Mexican Restaurant and Grill", "image_url": "https://s3-media1.fl.yelpcdn.com/bphoto/uOmKKgjvN2m8QqqobiEBkA/o.jpg", "is_closed": false, "url": "https://www.yelp.com/biz/las-palmas-mexican-restaurant-and-grill-ames?adjust_creative=RyNyMQd7rvZeoBrbuIrc1w&utm_campaign=yelp_api_v3&utm_medium=api_v3_business_search&utm_source=RyNyMQd7rvZeoBrbuIrc1w", "review_count": 6, "categories": [{"alias": "mexican", "title": "Mexican"}], "rating": 4.0, "coordinates": {"latitude": 42.03504, "longitude": -93.57917}, "transactions": [], "location": {"address1": "2601 E 13th St", "address2": "", "address3": null, "city": "Ames", "zip_code": "50010", "country": "US", "state": "IA", "display_address": ["2601 E 13th St", "Ames, IA 50010"]}, "phone": "+15153371193", "display_phone": "(515) 337-1193", "distance": 4281.104648626235}, {"id": "AQXzgp7CRNJVvwuM9ahTpQ", "alias": "starbucks-ames-6", "name": "Starbucks", "image_url": "https://s3-media3.fl.yelpcdn.com/bphoto/wg7mBEPCa7svVlrw5hjQLw/o.jpg", "is_closed": false, "url": "https://www.yelp.com/biz/starbucks-ames-6?adjust_creative=RyNyMQd7rvZeoBrbuIrc1w&utm_campaign=yelp_api_v3&utm_medium=api_v3_business_search&utm_source=RyNyMQd7rvZeoBrbuIrc1w", "review_count": 13, "categories": [{"alias": "coffee", "title": "Coffee & Tea"}], "rating": 3.5, "coordinates": {"latitude": 42.022644, "longitude": -93.646576}, "transactions": ["delivery"], "price": "$$", "location": {"address1": "2302 Lincoln Way", "address2": "", "address3": "", "city": "Ames", "zip_code": "50014", "country": "US", "state": "IA", "display_address": ["2302 Lincoln Way", "Ames, IA 50014"]}, "phone": "+15152360035", "display_phone": "(515) 236-0035", "distance": 1522.9397308574592}, {"id": "XD8Dl9wDtb9md2WeXXPuwQ", "alias": "firehouse-subs-ames-2", "name": "Firehouse Subs", "image_url": "https://s3-media1.fl.yelpcdn.com/bphoto/X-lnEJXI1skUiSHxLHP8OQ/o.jpg", "is_closed": false, "url": "https://www.yelp.com/biz/firehouse-subs-ames-2?adjust_creative=RyNyMQd7rvZeoBrbuIrc1w&utm_campaign=yelp_api_v3&utm_medium=api_v3_business_search&utm_source=RyNyMQd7rvZeoBrbuIrc1w", "review_count": 22, "categories": [{"alias": "hotdogs", "title": "Fast Food"}, {"alias": "delis", "title": "Delis"}, {"alias": "sandwiches", "title": "Sandwiches"}], "rating": 3.5, "coordinates": {"latitude": 42.01508, "longitude": -93.61125}, "transactions": ["pickup", "delivery"], "price": "$", "location": {"address1": "703 S Duff Ave", "address2": "Ste 110", "address3": "", "city": "Ames", "zip_code": "50010", "country": "US", "state": "IA", "display_address": ["703 S Duff Ave", "Ste 110", "Ames, IA 50010"]}, "phone": "+15152337199", "display_phone": "(515) 233-7199", "distance": 1720.6466352452528}, {"id": "nKc3BPzwwmWUdH9fyl_drw", "alias": "chick-fil-a-ames", "name": "Chick-fil-A", "image_url": "https://s3-media2.fl.yelpcdn.com/bphoto/BNzChi-As2bOOAhU2SozPQ/o.jpg", "is_closed": false, "url": "https://www.yelp.com/biz/chick-fil-a-ames?adjust_creative=RyNyMQd7rvZeoBrbuIrc1w&utm_campaign=yelp_api_v3&utm_medium=api_v3_business_search&utm_source=RyNyMQd7rvZeoBrbuIrc1w", "review_count": 30, "categories": [{"alias": "salad", "title": "Salad"}, {"alias": "hotdogs", "title": "Fast Food"}, {"alias": "chickenshop", "title": "Chicken Shop"}], "rating": 3.0, "coordinates": {"latitude": 42.0204873, "longitude": -93.6096681}, "transactions": ["delivery"], "price": "$", "location": {"address1": "230 S Duff Ave", "address2": "", "address3": "", "city": "Ames", "zip_code": "50010", "country": "US", "state": "IA", "display_address": ["230 S Duff Ave", "Ames, IA 50010"]}, "phone": "+15152322599", "display_phone": "(515) 232-2599", "distance": 1583.6814632755627}, {"id": "cDpn-IRNNWuG8VMzSu6RtA", "alias": "chipotle-mexican-grill-ames", "name": "Chipotle Mexican Grill", "image_url": "https://s3-media2.fl.yelpcdn.com/bphoto/a7rNJx0N1d83SYdTOy0m9g/o.jpg", "is_closed": false, "url": "https://www.yelp.com/biz/chipotle-mexican-grill-ames?adjust_creative=RyNyMQd7rvZeoBrbuIrc1w&utm_campaign=yelp_api_v3&utm_medium=api_v3_business_search&utm_source=RyNyMQd7rvZeoBrbuIrc1w", "review_count": 40, "categories": [{"alias": "mexican", "title": "Mexican"}, {"alias": "hotdogs", "title": "Fast Food"}], "rating": 3.0, "coordinates": {"latitude": 42.017626025489, "longitude": -93.6109924941803}, "transactions": ["pickup", "delivery"], "price": "$", "location": {"address1": "435 S Duff Ave", "address2": "Ste 102", "address3": "", "city": "Ames", "zip_code": "50010", "country": "US", "state": "IA", "display_address": ["435 S Duff Ave", "Ste 102", "Ames, IA 50010"]}, "phone": "+15155982385", "display_phone": "(515) 598-2385", "distance": 1592.768255141459}, {"id": "Zbkf_cgIy7x4R9_lnARNhw", "alias": "scooters-coffee-ames", "name": "Scooter's Coffee", "image_url": "https://s3-media4.fl.yelpcdn.com/bphoto/E1PDTWNhupFbGnMjDzVj9g/o.jpg", "is_closed": false, "url": "https://www.yelp.com/biz/scooters-coffee-ames?adjust_creative=RyNyMQd7rvZeoBrbuIrc1w&utm_campaign=yelp_api_v3&utm_medium=api_v3_business_search&utm_source=RyNyMQd7rvZeoBrbuIrc1w", "review_count": 17, "categories": [{"alias": "coffee", "title": "Coffee & Tea"}, {"alias": "juicebars", "title": "Juice Bars & Smoothies"}, {"alias": "sandwiches", "title": "Sandwiches"}], "rating": 3.5, "coordinates": {"latitude": 42.023192830743795, "longitude": -93.61006421987504}, "transactions": [], "location": {"address1": "104 Duff Ave", "address2": "", "address3": null, "city": "Ames", "zip_code": "50010", "country": "US", "state": "IA", "display_address": ["104 Duff Ave", "Ames, IA 50010"]}, "phone": "+15153371269", "display_phone": "(515) 337-1269", "distance": 1503.884864012834}, {"id": "TOh7-gpDVSka6UHM_SWOYw", "alias": "sportsman-lounge-ames", "name": "Sportsman Lounge", "image_url": "https://s3-media1.fl.yelpcdn.com/bphoto/mjn0TnsAhnyOXWQtWqmqOg/o.jpg", "is_closed": false, "url": "https://www.yelp.com/biz/sportsman-lounge-ames?adjust_creative=RyNyMQd7rvZeoBrbuIrc1w&utm_campaign=yelp_api_v3&utm_medium=api_v3_business_search&utm_source=RyNyMQd7rvZeoBrbuIrc1w", "review_count": 8, "categories": [{"alias": "lounges", "title": "Lounges"}], "rating": 4.5, "coordinates": {"latitude": 42.0253868103027, "longitude": -93.6115493774414}, "transactions": ["delivery"], "location": {"address1": "123 Main St", "address2": "", "address3": "", "city": "Ames", "zip_code": "50010", "country": "US", "state": "IA", "display_address": ["123 Main St", "Ames, IA 50010"]}, "phone": "+15152336320", "display_phone": "(515) 233-6320", "distance": 1386.6783741684433}, {"id": "qIkpXvJyTnvNk-eZ6xwd2w", "alias": "clayton-farms-salads-no-title", "name": "Clayton Farms Salads", "image_url": "https://s3-media3.fl.yelpcdn.com/bphoto/k4M-hEHJIOpevKxfojY0tg/o.jpg", "is_closed": false, "url": "https://www.yelp.com/biz/clayton-farms-salads-no-title?adjust_creative=RyNyMQd7rvZeoBrbuIrc1w&utm_campaign=yelp_api_v3&utm_medium=api_v3_business_search&utm_source=RyNyMQd7rvZeoBrbuIrc1w", "review_count": 4, "categories": [{"alias": "salad", "title": "Salad"}, {"alias": "juicebars", "title": "Juice Bars & Smoothies"}], "rating": 5.0, "coordinates": {"latitude": 42.046995, "longitude": -93.621022}, "transactions": [], "location": {"address1": "2435 Grand Ave", "address2": null, "address3": "", "city": "Ames", "zip_code": "50010", "country": "US", "state": "IA", "display_address": ["2435 Grand Ave", "Ames, IA 50010"]}, "phone": "", "display_phone": "", "distance": 2621.7844495962827}, {"id": "Mlw48O-yqMMfM-UYWnMTWw", "alias": "ichiban-japanese-restaurant-ames", "name": "Ichiban Japanese Restaurant", "image_url": "https://s3-media4.fl.yelpcdn.com/bphoto/C48x0qILgRxBKNWlytiiZA/o.jpg", "is_closed": false, "url": "https://www.yelp.com/biz/ichiban-japanese-restaurant-ames?adjust_creative=RyNyMQd7rvZeoBrbuIrc1w&utm_campaign=yelp_api_v3&utm_medium=api_v3_business_search&utm_source=RyNyMQd7rvZeoBrbuIrc1w", "review_count": 6, "categories": [{"alias": "ramen", "title": "Ramen"}, {"alias": "sushi", "title": "Sushi Bars"}], "rating": 4.5, "coordinates": {"latitude": 42.02226453673736, "longitude": -93.65036495973808}, "transactions": [], "location": {"address1": "117 Welch Ave", "address2": "", "address3": null, "city": "Ames", "zip_code": "50014", "country": "US", "state": "IA", "display_address": ["117 Welch Ave", "Ames, IA 50014"]}, "phone": "+15154505004", "display_phone": "(515) 450-5004", "distance": 1838.6230177148334}, {"id": "P5oiEbimjPceIYA7o369zQ", "alias": "888-restaurant-ames-3", "name": "888 Restaurant", "image_url": "https://s3-media4.fl.yelpcdn.com/bphoto/qDShVDPsmnnU36ME6vjLiA/o.jpg", "is_closed": false, "url": "https://www.yelp.com/biz/888-restaurant-ames-3?adjust_creative=RyNyMQd7rvZeoBrbuIrc1w&utm_campaign=yelp_api_v3&utm_medium=api_v3_business_search&utm_source=RyNyMQd7rvZeoBrbuIrc1w", "review_count": 48, "categories": [{"alias": "chinese", "title": "Chinese"}], "rating": 3.0, "coordinates": {"latitude": 42.05495, "longitude": -93.621996}, "transactions": ["pickup", "delivery"], "price": "$", "location": {"address1": "809 Wheeler St", "address2": "Ste 106", "address3": "", "city": "Ames", "zip_code": "50010", "country": "US", "state": "IA", "display_address": ["809 Wheeler St", "Ste 106", "Ames, IA 50010"]}, "phone": "+15152323366", "display_phone": "(515) 232-3366", "distance": 3475.7658879050823}, {"id": "Z7Ooh_RyShqeH0GcD_FAow", "alias": "west-towne-pub-ames", "name": "West Towne Pub", "image_url": "https://s3-media3.fl.yelpcdn.com/bphoto/YLq6fWPso7H34BGelHu6-A/o.jpg", "is_closed": false, "url": "https://www.yelp.com/biz/west-towne-pub-ames?adjust_creative=RyNyMQd7rvZeoBrbuIrc1w&utm_campaign=yelp_api_v3&utm_medium=api_v3_business_search&utm_source=RyNyMQd7rvZeoBrbuIrc1w", "review_count": 106, "categories": [{"alias": "tradamerican", "title": "American (Traditional)"}, {"alias": "pubs", "title": "Pubs"}], "rating": 2.5, "coordinates": {"latitude": 42.0111294198109, "longitude": -93.6792386950552}, "transactions": ["pickup", "delivery"], "price": "$$", "location": {"address1": "4518 Mortensen Rd", "address2": "Ste 108", "address3": "", "city": "Ames", "zip_code": "50014", "country": "US", "state": "IA", "display_address": ["4518 Mortensen Rd", "Ste 108", "Ames, IA 50014"]}, "phone": "+15152924555", "display_phone": "(515) 292-4555", "distance": 4451.218535690478}, {"id": "NTgcU1LZnQD-QBVJQa30nQ", "alias": "burgies-coffee-and-tea-ames-2", "name": "Burgie's Coffee & Tea", "image_url": "https://s3-media2.fl.yelpcdn.com/bphoto/BqIlviCgzTKnUZQTgBYmpg/o.jpg", "is_closed": false, "url": "https://www.yelp.com/biz/burgies-coffee-and-tea-ames-2?adjust_creative=RyNyMQd7rvZeoBrbuIrc1w&utm_campaign=yelp_api_v3&utm_medium=api_v3_business_search&utm_source=RyNyMQd7rvZeoBrbuIrc1w", "review_count": 5, "categories": [{"alias": "coffee", "title": "Coffee & Tea"}], "rating": 4.0, "coordinates": {"latitude": 42.03244, "longitude": -93.6123099}, "transactions": ["delivery"], "price": "$", "location": {"address1": "1111 Duff Ave", "address2": "", "address3": "Mary Greeley Medical Center", "city": "Ames", "zip_code": "50010", "country": "US", "state": "IA", "display_address": ["1111 Duff Ave", "Mary Greeley Medical Center", "Ames, IA 50010"]}, "phone": "+15152392326", "display_phone": "(515) 239-2326", "distance": 1670.7839210458158}, {"id": "43KsMKw_g1ntPDE7QK1VLQ", "alias": "five-guys-ames", "name": "Five Guys", "image_url": "https://s3-media1.fl.yelpcdn.com/bphoto/RGCteVLgoYShfWMj1oH_9w/o.jpg", "is_closed": false, "url": "https://www.yelp.com/biz/five-guys-ames?adjust_creative=RyNyMQd7rvZeoBrbuIrc1w&utm_campaign=yelp_api_v3&utm_medium=api_v3_business_search&utm_source=RyNyMQd7rvZeoBrbuIrc1w", "review_count": 17, "categories": [{"alias": "hotdogs", "title": "Fast Food"}, {"alias": "burgers", "title": "Burgers"}], "rating": 3.0, "coordinates": {"latitude": 42.0160063, "longitude": -93.6109174}, "transactions": ["delivery"], "location": {"address1": "535 S Duff Ave", "address2": "Ste 101", "address3": null, "city": "Ames", "zip_code": "50010", "country": "US", "state": "IA", "display_address": ["535 S Duff Ave", "Ste 101", "Ames, IA 50010"]}, "phone": "+15156205163", "display_phone": "(515) 620-5163", "distance": 1686.3840845891057}, {"id": "19dYGe68u6fYqqn1igw5_w", "alias": "cellar-626-ames-2", "name": "Cellar 626", "image_url": "https://s3-media2.fl.yelpcdn.com/bphoto/WthMpWSbBgjA1KHP1lWU6g/o.jpg", "is_closed": false, "url": "https://www.yelp.com/biz/cellar-626-ames-2?adjust_creative=RyNyMQd7rvZeoBrbuIrc1w&utm_campaign=yelp_api_v3&utm_medium=api_v3_business_search&utm_source=RyNyMQd7rvZeoBrbuIrc1w", "review_count": 8, "categories": [{"alias": "lounges", "title": "Lounges"}], "rating": 4.0, "coordinates": {"latitude": 42.0206837155447, "longitude": -93.6180626753275}, "transactions": [], "location": {"address1": "626 Lincoln Way", "address2": "", "address3": null, "city": "Ames", "zip_code": "50010", "country": "US", "state": "IA", "display_address": ["626 Lincoln Way", "Ames, IA 50010"]}, "phone": "+15152332327", "display_phone": "(515) 233-2327", "distance": 919.2849030157056}, {"id": "NpRSSb2wTbBYQ2d8vDseCQ", "alias": "marmalade-moon-ames", "name": "Marmalade Moon", "image_url": "https://s3-media2.fl.yelpcdn.com/bphoto/Y7fp_DTDpXn2KZh1d9F0XA/o.jpg", "is_closed": false, "url": "https://www.yelp.com/biz/marmalade-moon-ames?adjust_creative=RyNyMQd7rvZeoBrbuIrc1w&utm_campaign=yelp_api_v3&utm_medium=api_v3_business_search&utm_source=RyNyMQd7rvZeoBrbuIrc1w", "review_count": 3, "categories": [{"alias": "candy", "title": "Candy Stores"}, {"alias": "icecream", "title": "Ice Cream & Frozen Yogurt"}, {"alias": "giftshops", "title": "Gift Shops"}], "rating": 5.0, "coordinates": {"latitude": 42.02539, "longitude": -93.61249}, "transactions": [], "location": {"address1": "207 Main St", "address2": "", "address3": null, "city": "Ames", "zip_code": "50010", "country": "US", "state": "IA", "display_address": ["207 Main St", "Ames, IA 50010"]}, "phone": "+15158156434", "display_phone": "(515) 815-6434", "distance": 1307.4059828916738}, {"id": "UgFfbuzxvmUHYRYHx-R-vw", "alias": "little-taipei-ames", "name": "Little Taipei", "image_url": "https://s3-media3.fl.yelpcdn.com/bphoto/NeDEd4XgdudvT2Wjnakqcg/o.jpg", "is_closed": false, "url": "https://www.yelp.com/biz/little-taipei-ames?adjust_creative=RyNyMQd7rvZeoBrbuIrc1w&utm_campaign=yelp_api_v3&utm_medium=api_v3_business_search&utm_source=RyNyMQd7rvZeoBrbuIrc1w", "review_count": 41, "categories": [{"alias": "chinese", "title": "Chinese"}], "rating": 3.0, "coordinates": {"latitude": 42.021184708299, "longitude": -93.651418566683}, "transactions": ["delivery"], "price": "$", "location": {"address1": "2514 Chamberlain St", "address2": "", "address3": "", "city": "Ames", "zip_code": "50014", "country": "US", "state": "IA", "display_address": ["2514 Chamberlain St", "Ames, IA 50014"]}, "phone": "+15152926123", "display_phone": "(515) 292-6123", "distance": 1941.1623097601534}, {"id": "QXMIIgXI551y2cd7b0oL1g", "alias": "hy-vee-casual-dining-ames", "name": "Hy-Vee Casual Dining", "image_url": "https://s3-media4.fl.yelpcdn.com/bphoto/gYmE9ooT4bDJDrJ6eUZHdQ/o.jpg", "is_closed": false, "url": "https://www.yelp.com/biz/hy-vee-casual-dining-ames?adjust_creative=RyNyMQd7rvZeoBrbuIrc1w&utm_campaign=yelp_api_v3&utm_medium=api_v3_business_search&utm_source=RyNyMQd7rvZeoBrbuIrc1w", "review_count": 6, "categories": [{"alias": "breakfast_brunch", "title": "Breakfast & Brunch"}], "rating": 3.5, "coordinates": {"latitude": 42.0193054339867, "longitude": -93.6206531134918}, "transactions": [], "price": "$", "location": {"address1": "S Grand Ave", "address2": "", "address3": "", "city": "Ames", "zip_code": "50010", "country": "US", "state": "IA", "display_address": ["S Grand Ave", "Ames, IA 50010"]}, "phone": "", "display_phone": "", "distance": 817.9557920418275}, {"id": "fxjPHQJZzFI0kTAWygi4sg", "alias": "arbys-ames-2", "name": "Arby's", "image_url": "https://s3-media2.fl.yelpcdn.com/bphoto/yWGTLMByqMZgbEb3GuBptw/o.jpg", "is_closed": false, "url": "https://www.yelp.com/biz/arbys-ames-2?adjust_creative=RyNyMQd7rvZeoBrbuIrc1w&utm_campaign=yelp_api_v3&utm_medium=api_v3_business_search&utm_source=RyNyMQd7rvZeoBrbuIrc1w", "review_count": 13, "categories": [{"alias": "hotdogs", "title": "Fast Food"}, {"alias": "sandwiches", "title": "Sandwiches"}], "rating": 3.0, "coordinates": {"latitude": 42.0186283189487, "longitude": -93.6108959742184}, "transactions": ["pickup", "delivery"], "price": "$", "location": {"address1": "409 S Duff Ave", "address2": "", "address3": "", "city": "Ames", "zip_code": "50010", "country": "US", "state": "IA", "display_address": ["409 S Duff Ave", "Ames, IA 50010"]}, "phone": "+15152320867", "display_phone": "(515) 232-0867", "distance": 1553.4409651536143}, {"id": "fLwU63jPFlFuYEeipuMVig", "alias": "subway-ames-16", "name": "Subway", "image_url": "https://s3-media1.fl.yelpcdn.com/bphoto/PY09mi3XRO_PEzMR9u6wwg/o.jpg", "is_closed": false, "url": "https://www.yelp.com/biz/subway-ames-16?adjust_creative=RyNyMQd7rvZeoBrbuIrc1w&utm_campaign=yelp_api_v3&utm_medium=api_v3_business_search&utm_source=RyNyMQd7rvZeoBrbuIrc1w", "review_count": 6, "categories": [{"alias": "sandwiches", "title": "Sandwiches"}, {"alias": "hotdogs", "title": "Fast Food"}], "rating": 3.5, "coordinates": {"latitude": 42.0224993249659, "longitude": -93.6138821536617}, "transactions": ["pickup", "delivery"], "price": "$", "location": {"address1": "302 Lincoln Way", "address2": "Ste 101", "address3": "", "city": "Ames", "zip_code": "50010", "country": "US", "state": "IA", "display_address": ["302 Lincoln Way", "Ste 101", "Ames, IA 50010"]}, "phone": "+15152322181", "display_phone": "(515) 232-2181", "distance": 1197.85115755752}, {"id": "ZXKtTPONw2ZJtqgsc7yvPg", "alias": "mcfarland-park-ames", "name": "McFarland Park", "image_url": "https://s3-media2.fl.yelpcdn.com/bphoto/_yT_kj4vfiOGBCMC2s25CQ/o.jpg", "is_closed": false, "url": "https://www.yelp.com/biz/mcfarland-park-ames?adjust_creative=RyNyMQd7rvZeoBrbuIrc1w&utm_campaign=yelp_api_v3&utm_medium=api_v3_business_search&utm_source=RyNyMQd7rvZeoBrbuIrc1w", "review_count": 4, "categories": [{"alias": "parks", "title": "Parks"}], "rating": 5.0, "coordinates": {"latitude": 42.0928725546144, "longitude": -93.5696125030518}, "transactions": [], "location": {"address1": "56461 180th St", "address2": "", "address3": "", "city": "Ames", "zip_code": "50010", "country": "US", "state": "IA", "display_address": ["56461 180th St", "Ames, IA 50010"]}, "phone": "+15152322516", "display_phone": "(515) 232-2516", "distance": 9055.893135301701}, {"id": "OC-xky5XGtPumr2ZslgfBw", "alias": "insomnia-cookies-ames", "name": "Insomnia Cookies", "image_url": "https://s3-media1.fl.yelpcdn.com/bphoto/0NmpSxI3nHo4sgV4HWxB_A/o.jpg", "is_closed": false, "url": "https://www.yelp.com/biz/insomnia-cookies-ames?adjust_creative=RyNyMQd7rvZeoBrbuIrc1w&utm_campaign=yelp_api_v3&utm_medium=api_v3_business_search&utm_source=RyNyMQd7rvZeoBrbuIrc1w", "review_count": 33, "categories": [{"alias": "desserts", "title": "Desserts"}, {"alias": "fooddeliveryservices", "title": "Food Delivery Services"}, {"alias": "icecream", "title": "Ice Cream & Frozen Yogurt"}], "rating": 3.0, "coordinates": {"latitude": 42.02069, "longitude": -93.650573}, "transactions": ["pickup", "delivery"], "price": "$$", "location": {"address1": "217 Welch Ave", "address2": "Ste 102", "address3": "", "city": "Ames", "zip_code": "50014", "country": "US", "state": "IA", "display_address": ["217 Welch Ave", "Ste 102", "Ames, IA 50014"]}, "phone": "+15155851076", "display_phone": "(515) 585-1076", "distance": 1882.3942690196418}, {"id": "ZRpCHkvFfEMRanU8_H-l-A", "alias": "isu-creamery-ames", "name": "ISU Creamery", "image_url": "https://s3-media1.fl.yelpcdn.com/bphoto/zC25sOWmBvy4jj_tSbi4kg/o.jpg", "is_closed": false, "url": "https://www.yelp.com/biz/isu-creamery-ames?adjust_creative=RyNyMQd7rvZeoBrbuIrc1w&utm_campaign=yelp_api_v3&utm_medium=api_v3_business_search&utm_source=RyNyMQd7rvZeoBrbuIrc1w", "review_count": 2, "categories": [{"alias": "icecream", "title": "Ice Cream & Frozen Yogurt"}, {"alias": "waffles", "title": "Waffles"}], "rating": 4.5, "coordinates": {"latitude": 42.02688, "longitude": -93.6426}, "transactions": [], "location": {"address1": "536 Farm House Ln", "address2": "", "address3": null, "city": "Ames", "zip_code": "50011", "country": "US", "state": "IA", "display_address": ["536 Farm House Ln", "Ames, IA 50011"]}, "phone": "+15152943612", "display_phone": "(515) 294-3612", "distance": 1221.9044006173817}, {"id": "LXUiO1Z0FtyL7MdRD9lLmg", "alias": "panera-bread-ames", "name": "Panera Bread", "image_url": "https://s3-media3.fl.yelpcdn.com/bphoto/n9aK4ekep0li7ntwkS_HYA/o.jpg", "is_closed": false, "url": "https://www.yelp.com/biz/panera-bread-ames?adjust_creative=RyNyMQd7rvZeoBrbuIrc1w&utm_campaign=yelp_api_v3&utm_medium=api_v3_business_search&utm_source=RyNyMQd7rvZeoBrbuIrc1w", "review_count": 48, "categories": [{"alias": "sandwiches", "title": "Sandwiches"}, {"alias": "salad", "title": "Salad"}, {"alias": "soup", "title": "Soup"}], "rating": 2.5, "coordinates": {"latitude": 42.019768, "longitude": -93.611103}, "transactions": ["pickup", "delivery"], "price": "$$", "location": {"address1": "309 S Duff Avenue", "address2": "", "address3": "", "city": "Ames", "zip_code": "50010", "country": "US", "state": "IA", "display_address": ["309 S Duff Avenue", "Ames, IA 50010"]}, "phone": "+15159564580", "display_phone": "(515) 956-4580", "distance": 1488.8375330211863}, {"id": "mh6Iv9he4l-j24lI0TcJbw", "alias": "little-caesars-pizza-ames", "name": "Little Caesars Pizza", "image_url": "https://s3-media3.fl.yelpcdn.com/bphoto/uU2YXZvNawyK9dzSEU2jhw/o.jpg", "is_closed": false, "url": "https://www.yelp.com/biz/little-caesars-pizza-ames?adjust_creative=RyNyMQd7rvZeoBrbuIrc1w&utm_campaign=yelp_api_v3&utm_medium=api_v3_business_search&utm_source=RyNyMQd7rvZeoBrbuIrc1w", "review_count": 13, "categories": [{"alias": "pizza", "title": "Pizza"}, {"alias": "italian", "title": "Italian"}], "rating": 3.0, "coordinates": {"latitude": 42.02296350186246, "longitude": -93.61932268220886}, "transactions": [], "price": "$", "location": {"address1": "539 Lincoln Way", "address2": "", "address3": "", "city": "Ames", "zip_code": "50010", "country": "US", "state": "IA", "display_address": ["539 Lincoln Way", "Ames, IA 50010"]}, "phone": "+15152327499", "display_phone": "(515) 232-7499", "distance": 745.7899619460829}, {"id": "zF42t_ldY-nFjq0-Ufi_-Q", "alias": "may-house-cuisine-ames", "name": "May House Cuisine", "image_url": "https://s3-media3.fl.yelpcdn.com/bphoto/5DoIA6aMNPnB4lW5VKa65A/o.jpg", "is_closed": false, "url": "https://www.yelp.com/biz/may-house-cuisine-ames?adjust_creative=RyNyMQd7rvZeoBrbuIrc1w&utm_campaign=yelp_api_v3&utm_medium=api_v3_business_search&utm_source=RyNyMQd7rvZeoBrbuIrc1w", "review_count": 38, "categories": [{"alias": "chinese", "title": "Chinese"}], "rating": 3.5, "coordinates": {"latitude": 42.0231628417969, "longitude": -93.665771484375}, "transactions": ["pickup", "delivery"], "price": "$", "location": {"address1": "3417 Lincoln Way", "address2": "", "address3": "", "city": "Ames", "zip_code": "50014", "country": "US", "state": "IA", "display_address": ["3417 Lincoln Way", "Ames, IA 50014"]}, "phone": "+15152922089", "display_phone": "(515) 292-2089", "distance": 3100.6373502662827}, {"id": "KI9aGWhNnXBWpukGZA-OJQ", "alias": "dairy-queen-store-ames-2", "name": "Dairy Queen Store", "image_url": "https://s3-media2.fl.yelpcdn.com/bphoto/LS3y7tZgiQY8JZi0uP2dog/o.jpg", "is_closed": false, "url": "https://www.yelp.com/biz/dairy-queen-store-ames-2?adjust_creative=RyNyMQd7rvZeoBrbuIrc1w&utm_campaign=yelp_api_v3&utm_medium=api_v3_business_search&utm_source=RyNyMQd7rvZeoBrbuIrc1w", "review_count": 4, "categories": [{"alias": "icecream", "title": "Ice Cream & Frozen Yogurt"}, {"alias": "hotdogs", "title": "Fast Food"}, {"alias": "burgers", "title": "Burgers"}], "rating": 4.5, "coordinates": {"latitude": 42.054859161377, "longitude": -93.6212463378906}, "transactions": ["pickup", "delivery"], "price": "$", "location": {"address1": "3308 Orion Dr", "address2": "", "address3": "", "city": "Ames", "zip_code": "50010", "country": "US", "state": "IA", "display_address": ["3308 Orion Dr", "Ames, IA 50010"]}, "phone": "+15156630819", "display_phone": "(515) 663-0819", "distance": 3483.4509616137398}, {"id": "mFZzakem9Qo98iclGHkE-Q", "alias": "perfect-games-ames", "name": "Perfect Games", "image_url": "https://s3-media2.fl.yelpcdn.com/bphoto/EOsEBzI_Lp3c3EBF-nLD8A/o.jpg", "is_closed": false, "url": "https://www.yelp.com/biz/perfect-games-ames?adjust_creative=RyNyMQd7rvZeoBrbuIrc1w&utm_campaign=yelp_api_v3&utm_medium=api_v3_business_search&utm_source=RyNyMQd7rvZeoBrbuIrc1w", "review_count": 35, "categories": [{"alias": "pizza", "title": "Pizza"}, {"alias": "bowling", "title": "Bowling"}, {"alias": "arcades", "title": "Arcades"}], "rating": 2.5, "coordinates": {"latitude": 42.0106594, "longitude": -93.6811173}, "transactions": [], "price": "$$", "location": {"address1": "1320 Dickinson Ave", "address2": null, "address3": "", "city": "Ames", "zip_code": "50014", "country": "US", "state": "IA", "display_address": ["1320 Dickinson Ave", "Ames, IA 50014"]}, "phone": "+15155982695", "display_phone": "(515) 598-2695", "distance": 4614.990316394052}, {"id": "a1CQyQRR2yRmQUX_X7iIUQ", "alias": "jimmy-johns-ames-2", "name": "Jimmy John's", "image_url": "https://s3-media1.fl.yelpcdn.com/bphoto/mRnXmTivyNTFTYgpe84ZWA/o.jpg", "is_closed": false, "url": "https://www.yelp.com/biz/jimmy-johns-ames-2?adjust_creative=RyNyMQd7rvZeoBrbuIrc1w&utm_campaign=yelp_api_v3&utm_medium=api_v3_business_search&utm_source=RyNyMQd7rvZeoBrbuIrc1w", "review_count": 19, "categories": [{"alias": "sandwiches", "title": "Sandwiches"}, {"alias": "delis", "title": "Delis"}, {"alias": "hotdogs", "title": "Fast Food"}], "rating": 3.0, "coordinates": {"latitude": 42.0216162844735, "longitude": -93.650444780426}, "transactions": [], "price": "$", "location": {"address1": "135 Welch Ave", "address2": "", "address3": "", "city": "Ames", "zip_code": "50014", "country": "US", "state": "IA", "display_address": ["135 Welch Ave", "Ames, IA 50014"]}, "phone": "+15152922868", "display_phone": "(515) 292-2868", "distance": 1854.272705733579}, {"id": "j_USfr5FBclUST14Zjc6DQ", "alias": "cookies-etc-ames-3", "name": "Cookies, etc.", "image_url": "https://s3-media1.fl.yelpcdn.com/bphoto/jchfVuWBzyd9Y9yI4i3zAA/o.jpg", "is_closed": false, "url": "https://www.yelp.com/biz/cookies-etc-ames-3?adjust_creative=RyNyMQd7rvZeoBrbuIrc1w&utm_campaign=yelp_api_v3&utm_medium=api_v3_business_search&utm_source=RyNyMQd7rvZeoBrbuIrc1w", "review_count": 5, "categories": [{"alias": "desserts", "title": "Desserts"}], "rating": 4.5, "coordinates": {"latitude": 42.049311, "longitude": -93.6225906}, "transactions": [], "price": "$$", "location": {"address1": "2801 Grand Ave", "address2": "", "address3": "", "city": "Ames", "zip_code": "50010", "country": "US", "state": "IA", "display_address": ["2801 Grand Ave", "Ames, IA 50010"]}, "phone": "+15156632211", "display_phone": "(515) 663-2211", "distance": 2848.735877356685}, {"id": "2onQagxAeNPlVEKCHboV-g", "alias": "papa-murphys-ames", "name": "Papa Murphy's", "image_url": "", "is_closed": false, "url": "https://www.yelp.com/biz/papa-murphys-ames?adjust_creative=RyNyMQd7rvZeoBrbuIrc1w&utm_campaign=yelp_api_v3&utm_medium=api_v3_business_search&utm_source=RyNyMQd7rvZeoBrbuIrc1w", "review_count": 4, "categories": [{"alias": "pizza", "title": "Pizza"}], "rating": 5.0, "coordinates": {"latitude": 42.0231666564941, "longitude": -93.6115036010742}, "transactions": ["delivery"], "location": {"address1": "123 Lincoln Way", "address2": "", "address3": "", "city": "Ames", "zip_code": "50010", "country": "US", "state": "IA", "display_address": ["123 Lincoln Way", "Ames, IA 50010"]}, "phone": "+15152323196", "display_phone": "(515) 232-3196", "distance": 1375.651179237499}, {"id": "rkvuj442Gsjz1gjt_lNBEw", "alias": "taqueria-rositas-ames", "name": "Taqueria Rositas", "image_url": "https://s3-media2.fl.yelpcdn.com/bphoto/lRgDY5n6OiimPdDDWfoGkg/o.jpg", "is_closed": false, "url": "https://www.yelp.com/biz/taqueria-rositas-ames?adjust_creative=RyNyMQd7rvZeoBrbuIrc1w&utm_campaign=yelp_api_v3&utm_medium=api_v3_business_search&utm_source=RyNyMQd7rvZeoBrbuIrc1w", "review_count": 3, "categories": [{"alias": "foodtrucks", "title": "Food Trucks"}, {"alias": "mexican", "title": "Mexican"}], "rating": 4.5, "coordinates": {"latitude": 42.0221453692401, "longitude": -93.6117448459717}, "transactions": ["pickup"], "price": "$", "location": {"address1": "118 S Sherman Ave", "address2": "", "address3": "", "city": "Ames", "zip_code": "50010", "country": "US", "state": "IA", "display_address": ["118 S Sherman Ave", "Ames, IA 50010"]}, "phone": "+15152334051", "display_phone": "(515) 233-4051", "distance": 1378.2830033535547}, {"id": "wYQA_c1LuBRl2KH73t8sng", "alias": "dominos-pizza-ames-3", "name": "Domino's Pizza", "image_url": "https://s3-media3.fl.yelpcdn.com/bphoto/vjZDaHIpl_Dts-JqyjsqOA/o.jpg", "is_closed": false, "url": "https://www.yelp.com/biz/dominos-pizza-ames-3?adjust_creative=RyNyMQd7rvZeoBrbuIrc1w&utm_campaign=yelp_api_v3&utm_medium=api_v3_business_search&utm_source=RyNyMQd7rvZeoBrbuIrc1w", "review_count": 17, "categories": [{"alias": "chicken_wings", "title": "Chicken Wings"}, {"alias": "pizza", "title": "Pizza"}, {"alias": "sandwiches", "title": "Sandwiches"}], "rating": 3.0, "coordinates": {"latitude": 42.021913, "longitude": -93.651548}, "transactions": [], "price": "$", "location": {"address1": "122 Hayward Ave", "address2": "", "address3": null, "city": "Ames", "zip_code": "50014", "country": "US", "state": "IA", "display_address": ["122 Hayward Ave", "Ames, IA 50014"]}, "phone": "+15152923030", "display_phone": "(515) 292-3030", "distance": 1940.1865819237858}, {"id": "93Lr09Pkd0AdM9jkztvWNg", "alias": "pancheros-mexican-grill-ames", "name": "Pancheros Mexican Grill", "image_url": "https://s3-media2.fl.yelpcdn.com/bphoto/bULJyxissEczO3DuRfpZDQ/o.jpg", "is_closed": false, "url": "https://www.yelp.com/biz/pancheros-mexican-grill-ames?adjust_creative=RyNyMQd7rvZeoBrbuIrc1w&utm_campaign=yelp_api_v3&utm_medium=api_v3_business_search&utm_source=RyNyMQd7rvZeoBrbuIrc1w", "review_count": 63, "categories": [{"alias": "mexican", "title": "Mexican"}], "rating": 2.0, "coordinates": {"latitude": 42.01085, "longitude": -93.60968}, "transactions": ["delivery"], "price": "$", "location": {"address1": "1310 S Duff Ave", "address2": "Ste 103", "address3": "", "city": "Ames", "zip_code": "50010", "country": "US", "state": "IA", "display_address": ["1310 S Duff Ave", "Ste 103", "Ames, IA 50010"]}, "phone": "+15152334600", "display_phone": "(515) 233-4600", "distance": 2136.2889419696708}, {"id": "BjZgehiOovNS7Z-gf0XiwA", "alias": "cold-stone-creamery-ames", "name": "Cold Stone Creamery", "image_url": "https://s3-media3.fl.yelpcdn.com/bphoto/CGL3D4QsD74j0sXZv17DqA/o.jpg", "is_closed": false, "url": "https://www.yelp.com/biz/cold-stone-creamery-ames?adjust_creative=RyNyMQd7rvZeoBrbuIrc1w&utm_campaign=yelp_api_v3&utm_medium=api_v3_business_search&utm_source=RyNyMQd7rvZeoBrbuIrc1w", "review_count": 12, "categories": [{"alias": "icecream", "title": "Ice Cream & Frozen Yogurt"}, {"alias": "customcakes", "title": "Custom Cakes"}, {"alias": "cupcakes", "title": "Cupcakes"}], "rating": 3.5, "coordinates": {"latitude": 42.010817670375495, "longitude": -93.60947655495262}, "transactions": ["pickup", "delivery"], "price": "$$", "location": {"address1": "1310 S Duff Ave", "address2": "Ste 101", "address3": null, "city": "Ames", "zip_code": "50010", "country": "US", "state": "IA", "display_address": ["1310 S Duff Ave", "Ste 101", "Ames, IA 50010"]}, "phone": "+15152333911", "display_phone": "(515) 233-3911", "distance": 2135.898793487554}, {"id": "2KetQ2OKpuCr-f4Sai_jiw", "alias": "r-place-pub-and-pizza-kelley", "name": "R Place Pub and Pizza", "image_url": "https://s3-media1.fl.yelpcdn.com/bphoto/geiNcgtR9lL76cgPsz9dhw/o.jpg", "is_closed": false, "url": "https://www.yelp.com/biz/r-place-pub-and-pizza-kelley?adjust_creative=RyNyMQd7rvZeoBrbuIrc1w&utm_campaign=yelp_api_v3&utm_medium=api_v3_business_search&utm_source=RyNyMQd7rvZeoBrbuIrc1w", "review_count": 11, "categories": [{"alias": "pizza", "title": "Pizza"}, {"alias": "pubs", "title": "Pubs"}], "rating": 4.5, "coordinates": {"latitude": 41.94996, "longitude": -93.67712}, "transactions": [], "price": "$$", "location": {"address1": "1790 Giddings St", "address2": "", "address3": null, "city": "Kelley", "zip_code": "50134", "country": "US", "state": "IA", "display_address": ["1790 Giddings St", "Kelley, IA 50134"]}, "phone": "+15157692002", "display_phone": "(515) 769-2002", "distance": 9178.068740877492}, {"id": "GpkB5FtU_AdqkuScwU0o-g", "alias": "pizza-ranch-ames", "name": "Pizza Ranch", "image_url": "https://s3-media2.fl.yelpcdn.com/bphoto/yIN_vYzZwXkvZUmqio9VFA/o.jpg", "is_closed": false, "url": "https://www.yelp.com/biz/pizza-ranch-ames?adjust_creative=RyNyMQd7rvZeoBrbuIrc1w&utm_campaign=yelp_api_v3&utm_medium=api_v3_business_search&utm_source=RyNyMQd7rvZeoBrbuIrc1w", "review_count": 37, "categories": [{"alias": "pizza", "title": "Pizza"}, {"alias": "buffets", "title": "Buffets"}], "rating": 2.0, "coordinates": {"latitude": 42.03579, "longitude": -93.58216}, "transactions": ["pickup", "delivery"], "price": "$$", "location": {"address1": "1404 Boston Ave", "address2": null, "address3": null, "city": "Ames", "zip_code": "50010", "country": "US", "state": "IA", "display_address": ["1404 Boston Ave", "Ames, IA 50010"]}, "phone": "+15152321999", "display_phone": "(515) 232-1999", "distance": 4043.5613156468885}, {"id": "_iUqasW-UYwYC7X5RrHNlg", "alias": "tip-top-lounge-ames", "name": "Tip Top Lounge", "image_url": "https://s3-media4.fl.yelpcdn.com/bphoto/qEv1tcU8YZDO_nAKJGF5gg/o.jpg", "is_closed": false, "url": "https://www.yelp.com/biz/tip-top-lounge-ames?adjust_creative=RyNyMQd7rvZeoBrbuIrc1w&utm_campaign=yelp_api_v3&utm_medium=api_v3_business_search&utm_source=RyNyMQd7rvZeoBrbuIrc1w", "review_count": 16, "categories": [{"alias": "lounges", "title": "Lounges"}], "rating": 3.5, "coordinates": {"latitude": 42.0230903625488, "longitude": -93.609489440918}, "transactions": [], "price": "$$", "location": {"address1": "201 E Lincoln Way", "address2": "", "address3": "", "city": "Ames", "zip_code": "50010", "country": "US", "state": "IA", "display_address": ["201 E Lincoln Way", "Ames, IA 50010"]}, "phone": "+15152329822", "display_phone": "(515) 232-9822", "distance": 1546.9705717219954}, {"id": "4m-MWYEaBAHxqCgGlweZ0g", "alias": "jersey-mikes-subs-ames", "name": "Jersey Mike's Subs", "image_url": "https://s3-media1.fl.yelpcdn.com/bphoto/yEzTUO_6z6pzmRpPL4KUjw/o.jpg", "is_closed": false, "url": "https://www.yelp.com/biz/jersey-mikes-subs-ames?adjust_creative=RyNyMQd7rvZeoBrbuIrc1w&utm_campaign=yelp_api_v3&utm_medium=api_v3_business_search&utm_source=RyNyMQd7rvZeoBrbuIrc1w", "review_count": 14, "categories": [{"alias": "hotdogs", "title": "Fast Food"}, {"alias": "delis", "title": "Delis"}, {"alias": "sandwiches", "title": "Sandwiches"}], "rating": 2.5, "coordinates": {"latitude": 42.02320522715626, "longitude": -93.61873404436815}, "transactions": ["pickup", "delivery"], "location": {"address1": "537 Lincoln Way", "address2": "", "address3": "", "city": "Ames", "zip_code": "50010", "country": "US", "state": "IA", "display_address": ["537 Lincoln Way", "Ames, IA 50010"]}, "phone": "+15152321150", "display_phone": "(515) 232-1150", "distance": 790.2285097012267}, {"id": "HBpd1WfQrbh0iDEd9fH0Mw", "alias": "dunkin-ames", "name": "Dunkin'", "image_url": "https://s3-media2.fl.yelpcdn.com/bphoto/dDXyADDBdjBnxIUlPkvjEg/o.jpg", "is_closed": false, "url": "https://www.yelp.com/biz/dunkin-ames?adjust_creative=RyNyMQd7rvZeoBrbuIrc1w&utm_campaign=yelp_api_v3&utm_medium=api_v3_business_search&utm_source=RyNyMQd7rvZeoBrbuIrc1w", "review_count": 50, "categories": [{"alias": "donuts", "title": "Donuts"}, {"alias": "coffee", "title": "Coffee & Tea"}], "rating": 2.0, "coordinates": {"latitude": 42.0225441831602, "longitude": -93.65385893493556}, "transactions": ["pickup", "delivery"], "price": "$", "location": {"address1": "2650 Lincoln Way", "address2": "", "address3": "", "city": "Ames", "zip_code": "50014", "country": "US", "state": "IA", "display_address": ["2650 Lincoln Way", "Ames, IA 50014"]}, "phone": "+15153371780", "display_phone": "(515) 337-1780", "distance": 2123.1390050077575}, {"id": "GuzkV8gPB6m-9VflAACioA", "alias": "ames-historical-society-ames", "name": "Ames Historical Society", "image_url": "https://s3-media2.fl.yelpcdn.com/bphoto/TmoPQ6F0ZMQadfA_kPE5Mg/o.jpg", "is_closed": false, "url": "https://www.yelp.com/biz/ames-historical-society-ames?adjust_creative=RyNyMQd7rvZeoBrbuIrc1w&utm_campaign=yelp_api_v3&utm_medium=api_v3_business_search&utm_source=RyNyMQd7rvZeoBrbuIrc1w", "review_count": 2, "categories": [{"alias": "museums", "title": "Museums"}], "rating": 5.0, "coordinates": {"latitude": 42.0257339477539, "longitude": -93.6117858886719}, "transactions": [], "location": {"address1": "416 Douglas", "address2": "Ste 101", "address3": "", "city": "Ames", "zip_code": "50010", "country": "US", "state": "IA", "display_address": ["416 Douglas", "Ste 101", "Ames, IA 50010"]}, "phone": "+15152322148", "display_phone": "(515) 232-2148", "distance": 1371.6755797609103}, {"id": "wxRYUmhnZGjmjlJNfiT0yw", "alias": "mcdonald-s-ames", "name": "McDonald\u2019s", "image_url": "https://s3-media4.fl.yelpcdn.com/bphoto/62qd_WXbfNYQyN2kGmkT0g/o.jpg", "is_closed": false, "url": "https://www.yelp.com/biz/mcdonald-s-ames?adjust_creative=RyNyMQd7rvZeoBrbuIrc1w&utm_campaign=yelp_api_v3&utm_medium=api_v3_business_search&utm_source=RyNyMQd7rvZeoBrbuIrc1w", "review_count": 27, "categories": [{"alias": "hotdogs", "title": "Fast Food"}, {"alias": "burgers", "title": "Burgers"}, {"alias": "coffee", "title": "Coffee & Tea"}], "rating": 2.0, "coordinates": {"latitude": 42.02332752329, "longitude": -93.6685455590623}, "transactions": ["delivery"], "price": "$", "location": {"address1": "3621 Lincoln Way", "address2": "", "address3": "", "city": "Ames", "zip_code": "50010", "country": "US", "state": "IA", "display_address": ["3621 Lincoln Way", "Ames, IA 50010"]}, "phone": "+15152925200", "display_phone": "(515) 292-5200", "distance": 3330.7220300503213}, {"id": "WFwht5Gj-rqkZM7vcsyoPA", "alias": "taza-mediterranean-grill-no-title", "name": "Taza Mediterranean Grill", "image_url": "https://s3-media1.fl.yelpcdn.com/bphoto/_kQhYCCGtalqqGynHd01mw/o.jpg", "is_closed": false, "url": "https://www.yelp.com/biz/taza-mediterranean-grill-no-title?adjust_creative=RyNyMQd7rvZeoBrbuIrc1w&utm_campaign=yelp_api_v3&utm_medium=api_v3_business_search&utm_source=RyNyMQd7rvZeoBrbuIrc1w", "review_count": 4, "categories": [{"alias": "mideastern", "title": "Middle Eastern"}, {"alias": "arabian", "title": "Arabic"}, {"alias": "mediterranean", "title": "Mediterranean"}], "rating": 4.5, "coordinates": {"latitude": 42.01085, "longitude": -93.60968}, "transactions": [], "location": {"address1": "1310 S Duff Ave", "address2": null, "address3": "", "city": "Ames", "zip_code": "50010", "country": "US", "state": "IA", "display_address": ["1310 S Duff Ave", "Ames, IA 50010"]}, "phone": "+15158683155", "display_phone": "(515) 868-3155", "distance": 2136.2889419696708}, {"id": "5fG9MpU5iTxGDRZKm2HSQw", "alias": "inis-grove-park-ames", "name": "Inis Grove Park", "image_url": "https://s3-media1.fl.yelpcdn.com/bphoto/Qn6q9Z6o9hMxtF-HmR8b1A/o.jpg", "is_closed": false, "url": "https://www.yelp.com/biz/inis-grove-park-ames?adjust_creative=RyNyMQd7rvZeoBrbuIrc1w&utm_campaign=yelp_api_v3&utm_medium=api_v3_business_search&utm_source=RyNyMQd7rvZeoBrbuIrc1w", "review_count": 3, "categories": [{"alias": "parks", "title": "Parks"}], "rating": 4.5, "coordinates": {"latitude": 42.045617657161806, "longitude": -93.6280574}, "transactions": [], "location": {"address1": "24TH St", "address2": "", "address3": "", "city": "Ames", "zip_code": "50010", "country": "US", "state": "IA", "display_address": ["24TH St", "Ames, IA 50010"]}, "phone": "", "display_phone": "", "distance": 2399.704283888967}, {"id": "TeTWpN2PXfj4fMUWU6D0Sw", "alias": "johnnys-at-hilton-coliseum-ames", "name": "Johnny's At Hilton Coliseum", "image_url": "https://s3-media4.fl.yelpcdn.com/bphoto/TSZ9gmO-nHYzughVpI0rNQ/o.jpg", "is_closed": false, "url": "https://www.yelp.com/biz/johnnys-at-hilton-coliseum-ames?adjust_creative=RyNyMQd7rvZeoBrbuIrc1w&utm_campaign=yelp_api_v3&utm_medium=api_v3_business_search&utm_source=RyNyMQd7rvZeoBrbuIrc1w", "review_count": 2, "categories": [{"alias": "sportsbars", "title": "Sports Bars"}], "rating": 4.0, "coordinates": {"latitude": 42.0211321814362, "longitude": -93.6341895037606}, "transactions": [], "price": "$$", "location": {"address1": "1700 Ctr Drive Ames", "address2": "", "address3": "", "city": "Ames", "zip_code": "50011", "country": "US", "state": "IA", "display_address": ["1700 Ctr Drive Ames", "Ames, IA 50011"]}, "phone": "", "display_phone": "", "distance": 588.4503996162902}, {"id": "TDjo2Pk0sWL1KTZuE8lB_w", "alias": "rinconcito-hispano-ames", "name": "Rinconcito Hispano", "image_url": "https://s3-media2.fl.yelpcdn.com/bphoto/g-6h1cwBeYcifj02RqcANw/o.jpg", "is_closed": false, "url": "https://www.yelp.com/biz/rinconcito-hispano-ames?adjust_creative=RyNyMQd7rvZeoBrbuIrc1w&utm_campaign=yelp_api_v3&utm_medium=api_v3_business_search&utm_source=RyNyMQd7rvZeoBrbuIrc1w", "review_count": 4, "categories": [{"alias": "mexican", "title": "Mexican"}, {"alias": "grocery", "title": "Grocery"}], "rating": 5.0, "coordinates": {"latitude": 42.05460622765136, "longitude": -93.62325207219652}, "transactions": ["pickup", "delivery"], "location": {"address1": "823 Wheeler St", "address2": "Ste 1", "address3": null, "city": "Ames", "zip_code": "50010", "country": "US", "state": "IA", "display_address": ["823 Wheeler St", "Ste 1", "Ames, IA 50010"]}, "phone": "+15153371005", "display_phone": "(515) 337-1005", "distance": 3423.9584577072023}, {"id": "TnmipDQFzIjnwwblg7IoZg", "alias": "cactus-2-ames", "name": "Cactus 2", "image_url": "https://s3-media2.fl.yelpcdn.com/bphoto/TLcDIRmUxjiIo6FveVHGIA/o.jpg", "is_closed": false, "url": "https://www.yelp.com/biz/cactus-2-ames?adjust_creative=RyNyMQd7rvZeoBrbuIrc1w&utm_campaign=yelp_api_v3&utm_medium=api_v3_business_search&utm_source=RyNyMQd7rvZeoBrbuIrc1w", "review_count": 11, "categories": [{"alias": "mexican", "title": "Mexican"}], "rating": 2.5, "coordinates": {"latitude": 42.02263832864036, "longitude": -93.6496109}, "transactions": ["pickup", "delivery"], "location": {"address1": "2420 Lincoln Way", "address2": "Ste 103", "address3": null, "city": "Ames", "zip_code": "50014", "country": "US", "state": "IA", "display_address": ["2420 Lincoln Way", "Ste 103", "Ames, IA 50014"]}, "phone": "+15152922576", "display_phone": "(515) 292-2576", "distance": 1772.571894105687}], "total": 216, "region": {"center": {"longitude": -93.62823486328125, "latitude": 42.024036976644524}}}