{"businesses": [{"id": "LqH1YE1cH-MyOxE_V8wA7w", "alias": "wahlburgers-hy-vee-ames", "name": "Wahlburgers @ Hy-Vee", "image_url": "https://s3-media2.fl.yelpcdn.com/bphoto/5z1F2enI_AMQFOvurCXiXQ/o.jpg", "is_closed": false, "url": "https://www.yelp.com/biz/wahlburgers-hy-vee-ames?adjust_creative=RyNyMQd7rvZeoBrbuIrc1w&utm_campaign=yelp_api_v3&utm_medium=api_v3_business_search&utm_source=RyNyMQd7rvZeoBrbuIrc1w", "review_count": 3, "categories": [{"alias": "burgers", "title": "Burgers"}, {"alias": "tradamerican", "title": "American (Traditional)"}], "rating": 3.0, "coordinates": {"latitude": 42.020019, "longitude": -93.619542}, "transactions": [], "location": {"address1": "640 Lincoln Way", "address2": "-", "address3": null, "city": "Ames", "zip_code": "50010", "country": "US", "state": "IA", "display_address": ["640 Lincoln Way", "-", "Ames, IA 50010"]}, "phone": "+15152321961", "display_phone": "(515) 232-1961", "distance": 841.2767790814559}, {"id": "I-H374L1RENNaOZ7vpAxbg", "alias": "pasta-al-forno-ames", "name": "Pasta Al Forno", "image_url": "https://s3-media1.fl.yelpcdn.com/bphoto/PC4a21npBOUIu9oauVPAAA/o.jpg", "is_closed": false, "url": "https://www.yelp.com/biz/pasta-al-forno-ames?adjust_creative=RyNyMQd7rvZeoBrbuIrc1w&utm_campaign=yelp_api_v3&utm_medium=api_v3_business_search&utm_source=RyNyMQd7rvZeoBrbuIrc1w", "review_count": 7, "categories": [{"alias": "italian", "title": "Italian"}], "rating": 3.0, "coordinates": {"latitude": 42.034907716218314, "longitude": -93.57849676480338}, "transactions": [], "location": {"address1": "2601 E 13th St", "address2": "", "address3": null, "city": "Ames", "zip_code": "50010", "country": "US", "state": "IA", "display_address": ["2601 E 13th St", "Ames, IA 50010"]}, "phone": "+15153371422", "display_phone": "(515) 337-1422", "distance": 4282.287670485796}, {"id": "X0NB9THs25kARvJOOBee9w", "alias": "bnc-field-house-ames", "name": "BNC Field House", "image_url": "https://s3-media4.fl.yelpcdn.com/bphoto/glp0dK6HVAkBCS0kSPFVfA/o.jpg", "is_closed": false, "url": "https://www.yelp.com/biz/bnc-field-house-ames?adjust_creative=RyNyMQd7rvZeoBrbuIrc1w&utm_campaign=yelp_api_v3&utm_medium=api_v3_business_search&utm_source=RyNyMQd7rvZeoBrbuIrc1w", "review_count": 6, "categories": [{"alias": "sportsbars", "title": "Sports Bars"}], "rating": 2.5, "coordinates": {"latitude": 42.021209, "longitude": -93.649668}, "transactions": ["pickup", "delivery"], "location": {"address1": "206 Welch Ave", "address2": "", "address3": null, "city": "Ames", "zip_code": "50014", "country": "US", "state": "IA", "display_address": ["206 Welch Ave", "Ames, IA 50014"]}, "phone": "+15152929622", "display_phone": "(515) 292-9622", "distance": 1798.1813433480484}, {"id": "cdIK8PJfqvQWLf0z19_oyg", "alias": "dairy-queen-store-ames", "name": "Dairy Queen Store", "image_url": "https://s3-media2.fl.yelpcdn.com/bphoto/8XH7twxqUAGe_i-a7WpOTw/o.jpg", "is_closed": false, "url": "https://www.yelp.com/biz/dairy-queen-store-ames?adjust_creative=RyNyMQd7rvZeoBrbuIrc1w&utm_campaign=yelp_api_v3&utm_medium=api_v3_business_search&utm_source=RyNyMQd7rvZeoBrbuIrc1w", "review_count": 13, "categories": [{"alias": "icecream", "title": "Ice Cream & Frozen Yogurt"}, {"alias": "hotdogs", "title": "Fast Food"}, {"alias": "burgers", "title": "Burgers"}], "rating": 2.5, "coordinates": {"latitude": 42.0225257873535, "longitude": -93.6144485473633}, "transactions": ["pickup", "delivery"], "price": "$", "location": {"address1": "316 Lincoln Way", "address2": "", "address3": "", "city": "Ames", "zip_code": "50010", "country": "US", "state": "IA", "display_address": ["316 Lincoln Way", "Ames, IA 50010"]}, "phone": "+15152325715", "display_phone": "(515) 232-5715", "distance": 1161.295842543148}, {"id": "1ymFjoh6F-JG8303WMd26g", "alias": "chicha-shack-ames-3", "name": "Chicha Shack", "image_url": "https://s3-media2.fl.yelpcdn.com/bphoto/KsGaFV4KhD0acZfEKMnmLA/o.jpg", "is_closed": false, "url": "https://www.yelp.com/biz/chicha-shack-ames-3?adjust_creative=RyNyMQd7rvZeoBrbuIrc1w&utm_campaign=yelp_api_v3&utm_medium=api_v3_business_search&utm_source=RyNyMQd7rvZeoBrbuIrc1w", "review_count": 4, "categories": [{"alias": "hookah_bars", "title": "Hookah Bars"}], "rating": 3.5, "coordinates": {"latitude": 42.0216383, "longitude": -93.6502649}, "transactions": [], "price": "$$", "location": {"address1": "131 Welch Ave", "address2": "", "address3": "", "city": "Ames", "zip_code": "50014", "country": "US", "state": "IA", "display_address": ["131 Welch Ave", "Ames, IA 50014"]}, "phone": "+15152929563", "display_phone": "(515) 292-9563", "distance": 1854.8768811203238}, {"id": "7hoE90U101Z8E2-s9jYdJg", "alias": "papa-johns-pizza-ames-3", "name": "Papa Johns Pizza", "image_url": "https://s3-media1.fl.yelpcdn.com/bphoto/bgXe5GDHTuo3Gd5OC0GPbA/o.jpg", "is_closed": false, "url": "https://www.yelp.com/biz/papa-johns-pizza-ames-3?adjust_creative=RyNyMQd7rvZeoBrbuIrc1w&utm_campaign=yelp_api_v3&utm_medium=api_v3_business_search&utm_source=RyNyMQd7rvZeoBrbuIrc1w", "review_count": 10, "categories": [{"alias": "pizza", "title": "Pizza"}, {"alias": "chicken_wings", "title": "Chicken Wings"}, {"alias": "hotdogs", "title": "Fast Food"}], "rating": 3.0, "coordinates": {"latitude": 42.023137582905925, "longitude": -93.6641979217756}, "transactions": ["pickup", "delivery"], "price": "$", "location": {"address1": "3335 Lincoln Way", "address2": "", "address3": "", "city": "Ames", "zip_code": "50014", "country": "US", "state": "IA", "display_address": ["3335 Lincoln Way", "Ames, IA 50014"]}, "phone": "+15152964949", "display_phone": "(515) 296-4949", "distance": 2972.34680247819}, {"id": "Wm8nETy7OhW97NpkWUhn2g", "alias": "bandshell-park-ames", "name": "Bandshell Park", "image_url": "https://s3-media4.fl.yelpcdn.com/bphoto/DlAZOxcIQ3whh5yMc6aFkw/o.jpg", "is_closed": false, "url": "https://www.yelp.com/biz/bandshell-park-ames?adjust_creative=RyNyMQd7rvZeoBrbuIrc1w&utm_campaign=yelp_api_v3&utm_medium=api_v3_business_search&utm_source=RyNyMQd7rvZeoBrbuIrc1w", "review_count": 2, "categories": [{"alias": "parks", "title": "Parks"}], "rating": 4.5, "coordinates": {"latitude": 42.0265032188325, "longitude": -93.6096203327179}, "transactions": [], "location": {"address1": "Duff Ave", "address2": "", "address3": "", "city": "Ames", "zip_code": "50010", "country": "US", "state": "IA", "display_address": ["Duff Ave", "Ames, IA 50010"]}, "phone": "", "display_phone": "", "distance": 1561.8430399254264}, {"id": "U-iinznxZfi_sTmQ3QyBRA", "alias": "emma-mccarthy-lee-park-ames", "name": "Emma McCarthy Lee Park", "image_url": "https://s3-media4.fl.yelpcdn.com/bphoto/f1LlyQEyquYwJKh2BlakSQ/o.jpg", "is_closed": false, "url": "https://www.yelp.com/biz/emma-mccarthy-lee-park-ames?adjust_creative=RyNyMQd7rvZeoBrbuIrc1w&utm_campaign=yelp_api_v3&utm_medium=api_v3_business_search&utm_source=RyNyMQd7rvZeoBrbuIrc1w", "review_count": 3, "categories": [{"alias": "parks", "title": "Parks"}], "rating": 5.0, "coordinates": {"latitude": 42.0297143037596, "longitude": -93.6651182772788}, "transactions": [], "location": {"address1": "3400 Ross Rd", "address2": "", "address3": "", "city": "Ames", "zip_code": "50014", "country": "US", "state": "IA", "display_address": ["3400 Ross Rd", "Ames, IA 50014"]}, "phone": "", "display_phone": "", "distance": 3111.249741314127}, {"id": "QebP2CI7OOb07w_XHvAHLw", "alias": "mrbeast-burger-ames", "name": "MrBeast Burger", "image_url": "https://s3-media1.fl.yelpcdn.com/bphoto/4jBvQ-4KOhOMwo4pL7OinQ/o.jpg", "is_closed": false, "url": "https://www.yelp.com/biz/mrbeast-burger-ames?adjust_creative=RyNyMQd7rvZeoBrbuIrc1w&utm_campaign=yelp_api_v3&utm_medium=api_v3_business_search&utm_source=RyNyMQd7rvZeoBrbuIrc1w", "review_count": 4, "categories": [{"alias": "burgers", "title": "Burgers"}], "rating": 3.5, "coordinates": {"latitude": 42.01914, "longitude": -93.6113}, "transactions": ["pickup", "delivery"], "location": {"address1": "325 S Duff Ave", "address2": "", "address3": null, "city": "Ames", "zip_code": "50010", "country": "US", "state": "IA", "display_address": ["325 S Duff Ave", "Ames, IA 50010"]}, "phone": "", "display_phone": "", "distance": 1528.5303932003198}, {"id": "qiDHQJEDwLIhlNIOBU1g3w", "alias": "ricas-pupusas-pupuseria-mary-ames", "name": "Ricas Pupusas Pupuseria Mary", "image_url": "https://s3-media1.fl.yelpcdn.com/bphoto/9nX3d9QlLmBSQUiH8dYXlQ/o.jpg", "is_closed": false, "url": "https://www.yelp.com/biz/ricas-pupusas-pupuseria-mary-ames?adjust_creative=RyNyMQd7rvZeoBrbuIrc1w&utm_campaign=yelp_api_v3&utm_medium=api_v3_business_search&utm_source=RyNyMQd7rvZeoBrbuIrc1w", "review_count": 2, "categories": [{"alias": "foodtrucks", "title": "Food Trucks"}, {"alias": "mexican", "title": "Mexican"}, {"alias": "salvadoran", "title": "Salvadoran"}], "rating": 5.0, "coordinates": {"latitude": 42.0226086277969, "longitude": -93.6038351431489}, "transactions": [], "location": {"address1": "604 E Lincoln Way", "address2": "", "address3": null, "city": "Ames", "zip_code": "50010", "country": "US", "state": "IA", "display_address": ["604 E Lincoln Way", "Ames, IA 50010"]}, "phone": "+15154510800", "display_phone": "(515) 451-0800", "distance": 2021.7516207235212}, {"id": "mfH2xMglpE7Xh8ef2GfQgw", "alias": "burgies-espresso-cafe-ames-3", "name": "Burgies Espresso Cafe", "image_url": "https://s3-media3.fl.yelpcdn.com/bphoto/CIaxG9d5QFUtWtwUH66waw/o.jpg", "is_closed": false, "url": "https://www.yelp.com/biz/burgies-espresso-cafe-ames-3?adjust_creative=RyNyMQd7rvZeoBrbuIrc1w&utm_campaign=yelp_api_v3&utm_medium=api_v3_business_search&utm_source=RyNyMQd7rvZeoBrbuIrc1w", "review_count": 4, "categories": [{"alias": "coffee", "title": "Coffee & Tea"}], "rating": 5.0, "coordinates": {"latitude": 42.05691998936872, "longitude": -93.64610005170108}, "transactions": ["delivery"], "location": {"address1": "2801 Grand Ave", "address2": "", "address3": "", "city": "Ames", "zip_code": "50010", "country": "US", "state": "IA", "display_address": ["2801 Grand Ave", "Ames, IA 50010"]}, "phone": "+15152328894", "display_phone": "(515) 232-8894", "distance": 3942.842343461329}, {"id": "wg70oMT5wjG9McX5AE9dkw", "alias": "taco-bell-ames-3", "name": "Taco Bell", "image_url": "https://s3-media2.fl.yelpcdn.com/bphoto/8_rApfYzQVAAvmuBUTPrEQ/o.jpg", "is_closed": false, "url": "https://www.yelp.com/biz/taco-bell-ames-3?adjust_creative=RyNyMQd7rvZeoBrbuIrc1w&utm_campaign=yelp_api_v3&utm_medium=api_v3_business_search&utm_source=RyNyMQd7rvZeoBrbuIrc1w", "review_count": 50, "categories": [{"alias": "hotdogs", "title": "Fast Food"}, {"alias": "mexican", "title": "Mexican"}], "rating": 1.5, "coordinates": {"latitude": 42.018508, "longitude": -93.610538}, "transactions": ["pickup", "delivery"], "price": "$", "location": {"address1": "421 S Duff Avenue", "address2": null, "address3": null, "city": "Ames", "zip_code": "50010", "country": "US", "state": "IA", "display_address": ["421 S Duff Avenue", "Ames, IA 50010"]}, "phone": "+15152680100", "display_phone": "(515) 268-0100", "distance": 1585.8869405982596}, {"id": "GxUrlksmRAMJuxCzmtLY5A", "alias": "starbucks-ames-8", "name": "Starbucks", "image_url": "", "is_closed": false, "url": "https://www.yelp.com/biz/starbucks-ames-8?adjust_creative=RyNyMQd7rvZeoBrbuIrc1w&utm_campaign=yelp_api_v3&utm_medium=api_v3_business_search&utm_source=RyNyMQd7rvZeoBrbuIrc1w", "review_count": 1, "categories": [{"alias": "coffee", "title": "Coffee & Tea"}], "rating": 5.0, "coordinates": {"latitude": 42.050777, "longitude": -93.62141}, "transactions": [], "location": {"address1": "2925 Grand Ave", "address2": "", "address3": null, "city": "Ames", "zip_code": "50010", "country": "US", "state": "IA", "display_address": ["2925 Grand Ave", "Ames, IA 50010"]}, "phone": "+15153574866", "display_phone": "(515) 357-4866", "distance": 3026.301725801639}, {"id": "8rzJum6US2vO0zqBkapH_Q", "alias": "mickeys-irish-pub-ames", "name": "Mickey's Irish Pub", "image_url": "https://s3-media2.fl.yelpcdn.com/bphoto/2laPkXkUr0oJmbaA1xPhoQ/o.jpg", "is_closed": false, "url": "https://www.yelp.com/biz/mickeys-irish-pub-ames?adjust_creative=RyNyMQd7rvZeoBrbuIrc1w&utm_campaign=yelp_api_v3&utm_medium=api_v3_business_search&utm_source=RyNyMQd7rvZeoBrbuIrc1w", "review_count": 6, "categories": [{"alias": "pubs", "title": "Pubs"}], "rating": 3.5, "coordinates": {"latitude": 42.0223579406738, "longitude": -93.6504287719727}, "transactions": [], "price": "$", "location": {"address1": "109 Welch Ave", "address2": "", "address3": "", "city": "Ames", "zip_code": "50014", "country": "US", "state": "IA", "display_address": ["109 Welch Ave", "Ames, IA 50014"]}, "phone": "+15152927378", "display_phone": "(515) 292-7378", "distance": 1841.6347468400104}, {"id": "NAuSqVp9gZsJYJk8wHP3DA", "alias": "mcdonalds-ames-3", "name": "McDonald's", "image_url": "https://s3-media2.fl.yelpcdn.com/bphoto/RclQBl0oRnYtcw9_-ycFWg/o.jpg", "is_closed": false, "url": "https://www.yelp.com/biz/mcdonalds-ames-3?adjust_creative=RyNyMQd7rvZeoBrbuIrc1w&utm_campaign=yelp_api_v3&utm_medium=api_v3_business_search&utm_source=RyNyMQd7rvZeoBrbuIrc1w", "review_count": 28, "categories": [{"alias": "burgers", "title": "Burgers"}, {"alias": "hotdogs", "title": "Fast Food"}, {"alias": "coffee", "title": "Coffee & Tea"}], "rating": 1.5, "coordinates": {"latitude": 42.0218656471252, "longitude": -93.610998}, "transactions": ["delivery"], "price": "$", "location": {"address1": "129 S Duff", "address2": "", "address3": "", "city": "Ames", "zip_code": "50010", "country": "US", "state": "IA", "display_address": ["129 S Duff", "Ames, IA 50010"]}, "phone": "+15152321234", "display_phone": "(515) 232-1234", "distance": 1444.1599413473375}, {"id": "dmPv7ccRasonyjlCYx4FKA", "alias": "panda-express-ames-3", "name": "Panda Express", "image_url": "https://s3-media1.fl.yelpcdn.com/bphoto/QupGJAojszYjMNDHKTwSFg/o.jpg", "is_closed": false, "url": "https://www.yelp.com/biz/panda-express-ames-3?adjust_creative=RyNyMQd7rvZeoBrbuIrc1w&utm_campaign=yelp_api_v3&utm_medium=api_v3_business_search&utm_source=RyNyMQd7rvZeoBrbuIrc1w", "review_count": 34, "categories": [{"alias": "chinese", "title": "Chinese"}, {"alias": "hotdogs", "title": "Fast Food"}], "rating": 2.0, "coordinates": {"latitude": 42.017694, "longitude": -93.609777}, "transactions": ["pickup", "delivery"], "price": "$", "location": {"address1": "436 South Duff Avenue", "address2": "", "address3": null, "city": "Ames", "zip_code": "50010", "country": "US", "state": "IA", "display_address": ["436 South Duff Avenue", "Ames, IA 50010"]}, "phone": "+15152329312", "display_phone": "(515) 232-9312", "distance": 1679.8192210672332}, {"id": "rmYIsdPaphMiR2eojrtacw", "alias": "wendys-ames-3", "name": "Wendy's", "image_url": "https://s3-media1.fl.yelpcdn.com/bphoto/fV3SPfR9KSbTyMzG1aNO0w/o.jpg", "is_closed": false, "url": "https://www.yelp.com/biz/wendys-ames-3?adjust_creative=RyNyMQd7rvZeoBrbuIrc1w&utm_campaign=yelp_api_v3&utm_medium=api_v3_business_search&utm_source=RyNyMQd7rvZeoBrbuIrc1w", "review_count": 21, "categories": [{"alias": "burgers", "title": "Burgers"}, {"alias": "hotdogs", "title": "Fast Food"}], "rating": 2.0, "coordinates": {"latitude": 42.016406, "longitude": -93.609664}, "transactions": ["delivery"], "price": "$", "location": {"address1": "528 S. Duff Avenue", "address2": null, "address3": null, "city": "Ames", "zip_code": "50010", "country": "US", "state": "IA", "display_address": ["528 S. Duff Avenue", "Ames, IA 50010"]}, "phone": "+15152329369", "display_phone": "(515) 232-9369", "distance": 1754.017859977077}, {"id": "V3yWFNp34ry3B_97m3AReQ", "alias": "coldwater-golf-links-ames", "name": "Coldwater Golf Links", "image_url": "https://s3-media2.fl.yelpcdn.com/bphoto/boowD2ybtN87NoTz1L771w/o.jpg", "is_closed": false, "url": "https://www.yelp.com/biz/coldwater-golf-links-ames?adjust_creative=RyNyMQd7rvZeoBrbuIrc1w&utm_campaign=yelp_api_v3&utm_medium=api_v3_business_search&utm_source=RyNyMQd7rvZeoBrbuIrc1w", "review_count": 3, "categories": [{"alias": "golf", "title": "Golf"}], "rating": 3.5, "coordinates": {"latitude": 42.0098639, "longitude": -93.6182106}, "transactions": [], "location": {"address1": "1400 S Grand Ave", "address2": "", "address3": "", "city": "Ames", "zip_code": "50010", "country": "US", "state": "IA", "display_address": ["1400 S Grand Ave", "Ames, IA 50010"]}, "phone": "+15152334664", "display_phone": "(515) 233-4664", "distance": 1780.3023429611405}, {"id": "JPtfj_UZNVwaI9xQyG0L2A", "alias": "which-wich-ames", "name": "Which Wich", "image_url": "https://s3-media3.fl.yelpcdn.com/bphoto/WfwRmBYsJNSua6sn365s7A/o.jpg", "is_closed": false, "url": "https://www.yelp.com/biz/which-wich-ames?adjust_creative=RyNyMQd7rvZeoBrbuIrc1w&utm_campaign=yelp_api_v3&utm_medium=api_v3_business_search&utm_source=RyNyMQd7rvZeoBrbuIrc1w", "review_count": 3, "categories": [{"alias": "sandwiches", "title": "Sandwiches"}], "rating": 3.5, "coordinates": {"latitude": 42.0225951, "longitude": -93.6545999}, "transactions": ["pickup", "delivery"], "location": {"address1": "2710 Lincoln Way", "address2": "", "address3": null, "city": "Ames", "zip_code": "50014", "country": "US", "state": "IA", "display_address": ["2710 Lincoln Way", "Ames, IA 50014"]}, "phone": "+15152038964", "display_phone": "(515) 203-8964", "distance": 2188.119467418486}, {"id": "93cId8_aNIeejDAlT74JpQ", "alias": "starbucks-ames-9", "name": "Starbucks", "image_url": "https://s3-media1.fl.yelpcdn.com/bphoto/0KeivM-KAuhEr3V5uzeBvQ/o.jpg", "is_closed": false, "url": "https://www.yelp.com/biz/starbucks-ames-9?adjust_creative=RyNyMQd7rvZeoBrbuIrc1w&utm_campaign=yelp_api_v3&utm_medium=api_v3_business_search&utm_source=RyNyMQd7rvZeoBrbuIrc1w", "review_count": 2, "categories": [{"alias": "coffee", "title": "Coffee & Tea"}], "rating": 3.0, "coordinates": {"latitude": 42.02321937, "longitude": -93.61721789}, "transactions": [], "location": {"address1": "507 Lincoln Way", "address2": "", "address3": "", "city": "Ames", "zip_code": "50010", "country": "US", "state": "IA", "display_address": ["507 Lincoln Way", "Ames, IA 50010"]}, "phone": "+15152321242", "display_phone": "(515) 232-1242", "distance": 914.5666289630054}, {"id": "4jpalmIV95I-qbUTR09tkg", "alias": "caseys-ames-2", "name": "Casey's", "image_url": "https://s3-media2.fl.yelpcdn.com/bphoto/WAYeN6AUFDZw8kvNeVENEw/o.jpg", "is_closed": false, "url": "https://www.yelp.com/biz/caseys-ames-2?adjust_creative=RyNyMQd7rvZeoBrbuIrc1w&utm_campaign=yelp_api_v3&utm_medium=api_v3_business_search&utm_source=RyNyMQd7rvZeoBrbuIrc1w", "review_count": 4, "categories": [{"alias": "pizza", "title": "Pizza"}], "rating": 3.0, "coordinates": {"latitude": 42.022424926371, "longitude": -93.61665121895936}, "transactions": ["delivery"], "location": {"address1": "428 Lincoln Way", "address2": "", "address3": "", "city": "Ames", "zip_code": "50010", "country": "US", "state": "IA", "display_address": ["428 Lincoln Way", "Ames, IA 50010"]}, "phone": "+15152077876", "display_phone": "(515) 207-7876", "distance": 973.4967691356742}, {"id": "z10LCS9npyGOingM0-TdKQ", "alias": "starbucks-ames-2", "name": "Starbucks", "image_url": "https://s3-media2.fl.yelpcdn.com/bphoto/I27_OaYQVFghwAOXtuJSeQ/o.jpg", "is_closed": false, "url": "https://www.yelp.com/biz/starbucks-ames-2?adjust_creative=RyNyMQd7rvZeoBrbuIrc1w&utm_campaign=yelp_api_v3&utm_medium=api_v3_business_search&utm_source=RyNyMQd7rvZeoBrbuIrc1w", "review_count": 2, "categories": [{"alias": "coffee", "title": "Coffee & Tea"}], "rating": 4.0, "coordinates": {"latitude": 42.02172265, "longitude": -93.66977873}, "transactions": ["delivery"], "price": "$", "location": {"address1": "3800 W Lincoln Way", "address2": "", "address3": "Hy Vee Foods-Ames #1", "city": "Ames", "zip_code": "50014", "country": "US", "state": "IA", "display_address": ["3800 W Lincoln Way", "Hy Vee Foods-Ames #1", "Ames, IA 50014"]}, "phone": "+15152925543", "display_phone": "(515) 292-5543", "distance": 3441.3301212220285}, {"id": "il3oYQx62LtedJpVkJm1qQ", "alias": "one-night-stand-ames", "name": "One Night Stand", "image_url": "https://s3-media3.fl.yelpcdn.com/bphoto/vh29Scq7qQuNxkMe9HlrCA/o.jpg", "is_closed": false, "url": "https://www.yelp.com/biz/one-night-stand-ames?adjust_creative=RyNyMQd7rvZeoBrbuIrc1w&utm_campaign=yelp_api_v3&utm_medium=api_v3_business_search&utm_source=RyNyMQd7rvZeoBrbuIrc1w", "review_count": 3, "categories": [{"alias": "bars", "title": "Bars"}], "rating": 4.0, "coordinates": {"latitude": 42.0219309667697, "longitude": -93.6499865072655}, "transactions": [], "price": "$$$", "location": {"address1": "124 Welch Ave", "address2": "", "address3": null, "city": "Ames", "zip_code": "50014", "country": "US", "state": "IA", "display_address": ["124 Welch Ave", "Ames, IA 50014"]}, "phone": "+15154505003", "display_phone": "(515) 450-5003", "distance": 1811.9687271336293}, {"id": "hCSqFg_keIGmxiHY1iUHmg", "alias": "homewood-golf-course-ames", "name": "Homewood Golf Course", "image_url": "https://s3-media1.fl.yelpcdn.com/bphoto/-8VAWIgD0CmNeYoBX_he_Q/o.jpg", "is_closed": false, "url": "https://www.yelp.com/biz/homewood-golf-course-ames?adjust_creative=RyNyMQd7rvZeoBrbuIrc1w&utm_campaign=yelp_api_v3&utm_medium=api_v3_business_search&utm_source=RyNyMQd7rvZeoBrbuIrc1w", "review_count": 5, "categories": [{"alias": "golf", "title": "Golf"}], "rating": 4.5, "coordinates": {"latitude": 42.04383260841186, "longitude": -93.60828611125356}, "transactions": [], "location": {"address1": "401 E 20th St", "address2": "", "address3": "", "city": "Ames", "zip_code": "50010", "country": "US", "state": "IA", "display_address": ["401 E 20th St", "Ames, IA 50010"]}, "phone": "+15152395363", "display_phone": "(515) 239-5363", "distance": 2749.4759597719717}, {"id": "oOSJDwNnwkFqTfYGCen9nw", "alias": "pizza-hut-ames-7", "name": "Pizza Hut", "image_url": "https://s3-media2.fl.yelpcdn.com/bphoto/DdmhBFQKORPXse3yV19Qiw/o.jpg", "is_closed": false, "url": "https://www.yelp.com/biz/pizza-hut-ames-7?adjust_creative=RyNyMQd7rvZeoBrbuIrc1w&utm_campaign=yelp_api_v3&utm_medium=api_v3_business_search&utm_source=RyNyMQd7rvZeoBrbuIrc1w", "review_count": 10, "categories": [{"alias": "pizza", "title": "Pizza"}, {"alias": "chicken_wings", "title": "Chicken Wings"}, {"alias": "hotdogs", "title": "Fast Food"}], "rating": 2.5, "coordinates": {"latitude": 42.021478, "longitude": -93.618155}, "transactions": ["pickup", "delivery"], "price": "$", "location": {"address1": "620 Lincoln Way", "address2": "", "address3": "", "city": "Ames", "zip_code": "50010", "country": "US", "state": "IA", "display_address": ["620 Lincoln Way", "Ames, IA 50010"]}, "phone": "+15152331000", "display_phone": "(515) 233-1000", "distance": 881.1168135651188}, {"id": "xO_qCv_zQKcMJCOrwbSteA", "alias": "english-bulldog-cigar-lounge-ames", "name": "English Bulldog Cigar Lounge", "image_url": "https://s3-media1.fl.yelpcdn.com/bphoto/xuZnZVQK4Cpz22EwgxBphg/o.jpg", "is_closed": false, "url": "https://www.yelp.com/biz/english-bulldog-cigar-lounge-ames?adjust_creative=RyNyMQd7rvZeoBrbuIrc1w&utm_campaign=yelp_api_v3&utm_medium=api_v3_business_search&utm_source=RyNyMQd7rvZeoBrbuIrc1w", "review_count": 1, "categories": [{"alias": "cigarbars", "title": "Cigar Bars"}], "rating": 5.0, "coordinates": {"latitude": 42.0256, "longitude": -93.61402}, "transactions": [], "location": {"address1": "411 Kellogg Ave", "address2": "", "address3": null, "city": "Ames", "zip_code": "50010", "country": "US", "state": "IA", "display_address": ["411 Kellogg Ave", "Ames, IA 50010"]}, "phone": "", "display_phone": "", "distance": 1189.9037432231307}, {"id": "_H-wjuZ1A9dyZ7TLReuuWg", "alias": "veenker-memorial-golf-course-ames", "name": "Veenker Memorial Golf Course", "image_url": "https://s3-media1.fl.yelpcdn.com/bphoto/JVoRehLKORol9pk9pV-FfQ/o.jpg", "is_closed": false, "url": "https://www.yelp.com/biz/veenker-memorial-golf-course-ames?adjust_creative=RyNyMQd7rvZeoBrbuIrc1w&utm_campaign=yelp_api_v3&utm_medium=api_v3_business_search&utm_source=RyNyMQd7rvZeoBrbuIrc1w", "review_count": 2, "categories": [{"alias": "golf", "title": "Golf"}], "rating": 4.0, "coordinates": {"latitude": 42.040194, "longitude": -93.644795}, "transactions": [], "location": {"address1": "1925 Stange Rd", "address2": "", "address3": "", "city": "Ames", "zip_code": "50010", "country": "US", "state": "IA", "display_address": ["1925 Stange Rd", "Ames, IA 50010"]}, "phone": "+15152946727", "display_phone": "(515) 294-6727", "distance": 2257.962169926189}, {"id": "7sIZ_8YVrkNuoysOzOS08Q", "alias": "jimmy-johns-ames-6", "name": "Jimmy John's", "image_url": "https://s3-media2.fl.yelpcdn.com/bphoto/rcUJ3GefxXvOHFRF9MYx1A/o.jpg", "is_closed": false, "url": "https://www.yelp.com/biz/jimmy-johns-ames-6?adjust_creative=RyNyMQd7rvZeoBrbuIrc1w&utm_campaign=yelp_api_v3&utm_medium=api_v3_business_search&utm_source=RyNyMQd7rvZeoBrbuIrc1w", "review_count": 7, "categories": [{"alias": "sandwiches", "title": "Sandwiches"}, {"alias": "hotdogs", "title": "Fast Food"}, {"alias": "delis", "title": "Delis"}], "rating": 2.5, "coordinates": {"latitude": 42.015197, "longitude": -93.609653}, "transactions": [], "price": "$", "location": {"address1": "716 S Duff Ave", "address2": null, "address3": "", "city": "Ames", "zip_code": "50010", "country": "US", "state": "IA", "display_address": ["716 S Duff Ave", "Ames, IA 50010"]}, "phone": "+15152324567", "display_phone": "(515) 232-4567", "distance": 1839.9561636439469}, {"id": "rIomHGKG6PPxbpD1qMnOFw", "alias": "sweet-swirls-rolled-ice-cream-ames", "name": "Sweet Swirls Rolled Ice Cream", "image_url": "https://s3-media1.fl.yelpcdn.com/bphoto/p4bR1LrrLOahwiECkVaLnA/o.jpg", "is_closed": false, "url": "https://www.yelp.com/biz/sweet-swirls-rolled-ice-cream-ames?adjust_creative=RyNyMQd7rvZeoBrbuIrc1w&utm_campaign=yelp_api_v3&utm_medium=api_v3_business_search&utm_source=RyNyMQd7rvZeoBrbuIrc1w", "review_count": 1, "categories": [{"alias": "icecream", "title": "Ice Cream & Frozen Yogurt"}], "rating": 4.0, "coordinates": {"latitude": 42.0481521169448, "longitude": -93.62267062067986}, "transactions": [], "location": {"address1": "2801 Grand Ave", "address2": "", "address3": null, "city": "Ames", "zip_code": "50010", "country": "US", "state": "IA", "display_address": ["2801 Grand Ave", "Ames, IA 50010"]}, "phone": "", "display_phone": "", "distance": 2720.5692654400914}, {"id": "8WfLM8QDEAwiJu8wmahclA", "alias": "la-bamba-ames", "name": "La Bamba", "image_url": "https://s3-media2.fl.yelpcdn.com/bphoto/n8iTlAoNlCKTVtqNyLwgyQ/o.jpg", "is_closed": false, "url": "https://www.yelp.com/biz/la-bamba-ames?adjust_creative=RyNyMQd7rvZeoBrbuIrc1w&utm_campaign=yelp_api_v3&utm_medium=api_v3_business_search&utm_source=RyNyMQd7rvZeoBrbuIrc1w", "review_count": 2, "categories": [{"alias": "mexican", "title": "Mexican"}, {"alias": "foodtrucks", "title": "Food Trucks"}], "rating": 3.5, "coordinates": {"latitude": 42.02215, "longitude": -93.61165}, "transactions": ["delivery"], "price": "$", "location": {"address1": "118 S Sherman Ave", "address2": "Ste 102", "address3": null, "city": "Ames", "zip_code": "50010", "country": "US", "state": "IA", "display_address": ["118 S Sherman Ave", "Ste 102", "Ames, IA 50010"]}, "phone": "", "display_phone": "", "distance": 1387.3268203734203}, {"id": "jHTZWncwcibw8tEiUYsJdg", "alias": "hy-vee-market-cafe-ames", "name": "Hy-Vee Market Cafe", "image_url": "https://s3-media2.fl.yelpcdn.com/bphoto/k-jH5N0wVSpPj9xw6xTvkQ/o.jpg", "is_closed": false, "url": "https://www.yelp.com/biz/hy-vee-market-cafe-ames?adjust_creative=RyNyMQd7rvZeoBrbuIrc1w&utm_campaign=yelp_api_v3&utm_medium=api_v3_business_search&utm_source=RyNyMQd7rvZeoBrbuIrc1w", "review_count": 13, "categories": [{"alias": "cafes", "title": "Cafes"}], "rating": 3.0, "coordinates": {"latitude": 42.0215966833364, "longitude": -93.669663098349}, "transactions": ["pickup", "delivery"], "price": "$$", "location": {"address1": "3800 Lincoln Way", "address2": "", "address3": "", "city": "Ames", "zip_code": "50014", "country": "US", "state": "IA", "display_address": ["3800 Lincoln Way", "Ames, IA 50014"]}, "phone": "+15152925580", "display_phone": "(515) 292-5580", "distance": 3432.8874143228877}, {"id": "cHLakqsZYaDvC6kPwDmLPA", "alias": "ames-dog-park-ames", "name": "Ames Dog Park", "image_url": "https://s3-media1.fl.yelpcdn.com/bphoto/gHxTiWFQArn6YFYM9DJlLg/o.jpg", "is_closed": false, "url": "https://www.yelp.com/biz/ames-dog-park-ames?adjust_creative=RyNyMQd7rvZeoBrbuIrc1w&utm_campaign=yelp_api_v3&utm_medium=api_v3_business_search&utm_source=RyNyMQd7rvZeoBrbuIrc1w", "review_count": 4, "categories": [{"alias": "dog_parks", "title": "Dog Parks"}], "rating": 4.0, "coordinates": {"latitude": 42.003506, "longitude": -93.602}, "transactions": [], "location": {"address1": "605 Billy Sunday Rd", "address2": "", "address3": "", "city": "Ames", "zip_code": "50010", "country": "US", "state": "IA", "display_address": ["605 Billy Sunday Rd", "Ames, IA 50010"]}, "phone": "+15152395350", "display_phone": "(515) 239-5350", "distance": 3150.060752461648}, {"id": "fDok_xLFjhuI_MBMG82p4Q", "alias": "subway-ames-15", "name": "Subway", "image_url": "https://s3-media1.fl.yelpcdn.com/bphoto/7sB5c2iEJ0cfMy0ZRKoD0Q/o.jpg", "is_closed": false, "url": "https://www.yelp.com/biz/subway-ames-15?adjust_creative=RyNyMQd7rvZeoBrbuIrc1w&utm_campaign=yelp_api_v3&utm_medium=api_v3_business_search&utm_source=RyNyMQd7rvZeoBrbuIrc1w", "review_count": 11, "categories": [{"alias": "sandwiches", "title": "Sandwiches"}, {"alias": "hotdogs", "title": "Fast Food"}], "rating": 1.5, "coordinates": {"latitude": 42.0215761757748, "longitude": -93.6688005}, "transactions": ["pickup", "delivery"], "price": "$", "location": {"address1": "3712 Lincoln Way", "address2": "", "address3": "", "city": "Ames", "zip_code": "50014", "country": "US", "state": "IA", "display_address": ["3712 Lincoln Way", "Ames, IA 50014"]}, "phone": "+15152926430", "display_phone": "(515) 292-6430", "distance": 3362.0461865008238}, {"id": "aB-10QOrD9qquVx8gXOsRg", "alias": "taco-royale-ames", "name": "Taco Royale", "image_url": "", "is_closed": false, "url": "https://www.yelp.com/biz/taco-royale-ames?adjust_creative=RyNyMQd7rvZeoBrbuIrc1w&utm_campaign=yelp_api_v3&utm_medium=api_v3_business_search&utm_source=RyNyMQd7rvZeoBrbuIrc1w", "review_count": 1, "categories": [{"alias": "mexican", "title": "Mexican"}], "rating": 5.0, "coordinates": {"latitude": 42.054519, "longitude": -93.623097}, "transactions": [], "location": {"address1": "823 Wheeler St", "address2": "", "address3": null, "city": "Ames", "zip_code": "50010", "country": "US", "state": "IA", "display_address": ["823 Wheeler St", "Ames, IA 50010"]}, "phone": "", "display_phone": "", "distance": 3409.554459050043}, {"id": "BC_KZaXt7xShKAPqrnpWmg", "alias": "fareway-ames", "name": "Fareway", "image_url": "https://s3-media4.fl.yelpcdn.com/bphoto/4ZWlZwVY6h24HVaGXgNBOA/o.jpg", "is_closed": false, "url": "https://www.yelp.com/biz/fareway-ames?adjust_creative=RyNyMQd7rvZeoBrbuIrc1w&utm_campaign=yelp_api_v3&utm_medium=api_v3_business_search&utm_source=RyNyMQd7rvZeoBrbuIrc1w", "review_count": 4, "categories": [{"alias": "meats", "title": "Meat Shops"}, {"alias": "bakeries", "title": "Bakeries"}, {"alias": "grocery", "title": "Grocery"}], "rating": 3.5, "coordinates": {"latitude": 42.02193, "longitude": -93.66991}, "transactions": ["pickup", "delivery"], "location": {"address1": "3720 Lincoln Way", "address2": "", "address3": null, "city": "Ames", "zip_code": "50014", "country": "US", "state": "IA", "display_address": ["3720 Lincoln Way", "Ames, IA 50014"]}, "phone": "+15152924109", "display_phone": "(515) 292-4109", "distance": 3337.6467513456373}, {"id": "FjU7yMr2EMku2Y-wdWFOHA", "alias": "gym-n-eat-crickets-ames", "name": "Gym-N-Eat Crickets", "image_url": "https://s3-media2.fl.yelpcdn.com/bphoto/j_zgrRALdbXrMrCJQ2Co-w/o.jpg", "is_closed": false, "url": "https://www.yelp.com/biz/gym-n-eat-crickets-ames?adjust_creative=RyNyMQd7rvZeoBrbuIrc1w&utm_campaign=yelp_api_v3&utm_medium=api_v3_business_search&utm_source=RyNyMQd7rvZeoBrbuIrc1w", "review_count": 1, "categories": [{"alias": "foodstands", "title": "Food Stands"}], "rating": 5.0, "coordinates": {"latitude": 42.024896, "longitude": -93.612537}, "transactions": [], "location": {"address1": "212 Main St", "address2": "", "address3": null, "city": "Ames", "zip_code": "50010", "country": "US", "state": "IA", "display_address": ["212 Main St", "Ames, IA 50010"]}, "phone": "", "display_phone": "", "distance": 1302.0456560260354}, {"id": "_Uxs8qB8VeOASZjyoI5LBg", "alias": "bufords-steak-house-and-bbq-ames", "name": "Buford's Steak House & Bbq", "image_url": "", "is_closed": false, "url": "https://www.yelp.com/biz/bufords-steak-house-and-bbq-ames?adjust_creative=RyNyMQd7rvZeoBrbuIrc1w&utm_campaign=yelp_api_v3&utm_medium=api_v3_business_search&utm_source=RyNyMQd7rvZeoBrbuIrc1w", "review_count": 9, "categories": [{"alias": "hotels", "title": "Hotels"}, {"alias": "steak", "title": "Steakhouses"}], "rating": 2.0, "coordinates": {"latitude": 42.0350494384766, "longitude": -93.5790863037109}, "transactions": [], "price": "$$", "location": {"address1": "2601 E 13th St", "address2": "", "address3": "", "city": "Ames", "zip_code": "50010", "country": "US", "state": "IA", "display_address": ["2601 E 13th St", "Ames, IA 50010"]}, "phone": "+15152329260", "display_phone": "(515) 232-9260", "distance": 4281.104648625228}, {"id": "7LUk6sngMm1aZEiMe4dzSQ", "alias": "burgie-s-coffee-north-ames", "name": "Burgie\u2019s Coffee - North", "image_url": "https://s3-media2.fl.yelpcdn.com/bphoto/0U8RoAjoo5CZZ-jS5LtGtw/o.jpg", "is_closed": false, "url": "https://www.yelp.com/biz/burgie-s-coffee-north-ames?adjust_creative=RyNyMQd7rvZeoBrbuIrc1w&utm_campaign=yelp_api_v3&utm_medium=api_v3_business_search&utm_source=RyNyMQd7rvZeoBrbuIrc1w", "review_count": 4, "categories": [{"alias": "coffee", "title": "Coffee & Tea"}], "rating": 4.5, "coordinates": {"latitude": 42.0574903, "longitude": -93.6454155}, "transactions": [], "location": {"address1": "3701 Stange Rd", "address2": "", "address3": null, "city": "Ames", "zip_code": "50010", "country": "US", "state": "IA", "display_address": ["3701 Stange Rd", "Ames, IA 50010"]}, "phone": "+15158156442", "display_phone": "(515) 815-6442", "distance": 3916.256471537319}, {"id": "YdbTpuZNmtH00s7PJfkBBw", "alias": "panda-express-ames-4", "name": "Panda Express", "image_url": "https://s3-media4.fl.yelpcdn.com/bphoto/urTiAtVO37dpOqo9Da7YdQ/o.jpg", "is_closed": false, "url": "https://www.yelp.com/biz/panda-express-ames-4?adjust_creative=RyNyMQd7rvZeoBrbuIrc1w&utm_campaign=yelp_api_v3&utm_medium=api_v3_business_search&utm_source=RyNyMQd7rvZeoBrbuIrc1w", "review_count": 9, "categories": [{"alias": "chinese", "title": "Chinese"}, {"alias": "hotdogs", "title": "Fast Food"}], "rating": 2.5, "coordinates": {"latitude": 42.0239040909008, "longitude": -93.6458879512395}, "transactions": ["delivery"], "price": "$", "location": {"address1": "2229 Lincoln Way", "address2": "", "address3": "", "city": "Ames", "zip_code": "50011", "country": "US", "state": "IA", "display_address": ["2229 Lincoln Way", "Ames, IA 50011"]}, "phone": "+15152944194", "display_phone": "(515) 294-4194", "distance": 1458.267722441133}, {"id": "PnhQHJsYpsjWzWZdXB5MFg", "alias": "b-bops-north-ames-ames", "name": "B-Bop's - North Ames", "image_url": "https://s3-media3.fl.yelpcdn.com/bphoto/ZLy1bZzZgQ0AZ3RobTC6Cg/o.jpg", "is_closed": false, "url": "https://www.yelp.com/biz/b-bops-north-ames-ames?adjust_creative=RyNyMQd7rvZeoBrbuIrc1w&utm_campaign=yelp_api_v3&utm_medium=api_v3_business_search&utm_source=RyNyMQd7rvZeoBrbuIrc1w", "review_count": 2, "categories": [{"alias": "burgers", "title": "Burgers"}], "rating": 3.0, "coordinates": {"latitude": 42.0461216373841, "longitude": -93.6205605939689}, "transactions": [], "location": {"address1": "2415 Grand Ave", "address2": "", "address3": null, "city": "Ames", "zip_code": "50010", "country": "US", "state": "IA", "display_address": ["2415 Grand Ave", "Ames, IA 50010"]}, "phone": "+15156205038", "display_phone": "(515) 620-5038", "distance": 2580.599811819422}, {"id": "uZ_GNnQk9eOPfGDAlKvNlQ", "alias": "caseys-ames-4", "name": "Casey's", "image_url": "https://s3-media3.fl.yelpcdn.com/bphoto/Q0dsPZ_oHY5MRL6RUCpSHA/o.jpg", "is_closed": false, "url": "https://www.yelp.com/biz/caseys-ames-4?adjust_creative=RyNyMQd7rvZeoBrbuIrc1w&utm_campaign=yelp_api_v3&utm_medium=api_v3_business_search&utm_source=RyNyMQd7rvZeoBrbuIrc1w", "review_count": 5, "categories": [{"alias": "pizza", "title": "Pizza"}], "rating": 2.0, "coordinates": {"latitude": 41.99552372578962, "longitude": -93.60945617646902}, "transactions": ["delivery"], "price": "$", "location": {"address1": "3020 S Duff Ave", "address2": null, "address3": null, "city": "Ames", "zip_code": "50010", "country": "US", "state": "IA", "display_address": ["3020 S Duff Ave", "Ames, IA 50010"]}, "phone": "+15152077893", "display_phone": "(515) 207-7893", "distance": 3529.7923684470843}, {"id": "CMHmTJiKMN8wodYTvSe2xQ", "alias": "ajs-ultra-lounge-ames", "name": "AJ'S ULTRA LOUNGE", "image_url": "https://s3-media3.fl.yelpcdn.com/bphoto/87T26T548oDOJQkQJKWJ-w/o.jpg", "is_closed": false, "url": "https://www.yelp.com/biz/ajs-ultra-lounge-ames?adjust_creative=RyNyMQd7rvZeoBrbuIrc1w&utm_campaign=yelp_api_v3&utm_medium=api_v3_business_search&utm_source=RyNyMQd7rvZeoBrbuIrc1w", "review_count": 1, "categories": [{"alias": "danceclubs", "title": "Dance Clubs"}, {"alias": "bars", "title": "Bars"}], "rating": 1.0, "coordinates": {"latitude": 42.02155, "longitude": -93.64896}, "transactions": [], "location": {"address1": "2401 Chamberlain St", "address2": null, "address3": "", "city": "Ames", "zip_code": "50014", "country": "US", "state": "IA", "display_address": ["2401 Chamberlain St", "Ames, IA 50014"]}, "phone": "+15152904657", "display_phone": "(515) 290-4657", "distance": 1722.6091015641045}, {"id": "0ynXST1SO5rzUw0jv-wg-g", "alias": "subway-ames-11", "name": "Subway", "image_url": "https://s3-media2.fl.yelpcdn.com/bphoto/H6h9Nxo53g2xM2KticZsIA/o.jpg", "is_closed": false, "url": "https://www.yelp.com/biz/subway-ames-11?adjust_creative=RyNyMQd7rvZeoBrbuIrc1w&utm_campaign=yelp_api_v3&utm_medium=api_v3_business_search&utm_source=RyNyMQd7rvZeoBrbuIrc1w", "review_count": 6, "categories": [{"alias": "sandwiches", "title": "Sandwiches"}], "rating": 2.0, "coordinates": {"latitude": 42.0108365, "longitude": -93.6094865}, "transactions": ["pickup", "delivery"], "price": "$", "location": {"address1": "1310 S Duff Ave", "address2": "Ste 105", "address3": "", "city": "Ames", "zip_code": "50010", "country": "US", "state": "IA", "display_address": ["1310 S Duff Ave", "Ste 105", "Ames, IA 50010"]}, "phone": "+15152324515", "display_phone": "(515) 232-4515", "distance": 2133.861853560836}, {"id": "6-kCPX3GHIqysm3QQFBcJw", "alias": "kiwanis-pancake-day-ames", "name": "Kiwanis Pancake Day", "image_url": "https://s3-media3.fl.yelpcdn.com/bphoto/753aCKtJndeVF5G409_dDw/o.jpg", "is_closed": false, "url": "https://www.yelp.com/biz/kiwanis-pancake-day-ames?adjust_creative=RyNyMQd7rvZeoBrbuIrc1w&utm_campaign=yelp_api_v3&utm_medium=api_v3_business_search&utm_source=RyNyMQd7rvZeoBrbuIrc1w", "review_count": 1, "categories": [{"alias": "localflavor", "title": "Local Flavor"}], "rating": 5.0, "coordinates": {"latitude": 42.026653, "longitude": -93.613304}, "transactions": [], "location": {"address1": "516 Kellogg Ave", "address2": "", "address3": "", "city": "Ames", "zip_code": "50010", "country": "US", "state": "IA", "display_address": ["516 Kellogg Ave", "Ames, IA 50010"]}, "phone": "", "display_phone": "", "distance": 1277.9722228921933}, {"id": "_TV5XEbSOGC3y1eJSw_vaw", "alias": "subway-ames-12", "name": "Subway", "image_url": "https://s3-media1.fl.yelpcdn.com/bphoto/mqSI-kQuzI52SzIEsf9FOQ/o.jpg", "is_closed": false, "url": "https://www.yelp.com/biz/subway-ames-12?adjust_creative=RyNyMQd7rvZeoBrbuIrc1w&utm_campaign=yelp_api_v3&utm_medium=api_v3_business_search&utm_source=RyNyMQd7rvZeoBrbuIrc1w", "review_count": 7, "categories": [{"alias": "sandwiches", "title": "Sandwiches"}, {"alias": "hotdogs", "title": "Fast Food"}], "rating": 1.5, "coordinates": {"latitude": 42.0222150746907, "longitude": -93.6504393717535}, "transactions": ["pickup", "delivery"], "price": "$", "location": {"address1": "113 Welch Ave", "address2": "", "address3": "", "city": "Ames", "zip_code": "50014", "country": "US", "state": "IA", "display_address": ["113 Welch Ave", "Ames, IA 50014"]}, "phone": "+15152927917", "display_phone": "(515) 292-7917", "distance": 1845.3308406632389}, {"id": "X6TkJqJtZH-JQrIlZdKbig", "alias": "caseys-ames-3", "name": "Casey's", "image_url": "https://s3-media4.fl.yelpcdn.com/bphoto/zU_Huq5rZ6k3LoSPz4-GWA/o.jpg", "is_closed": false, "url": "https://www.yelp.com/biz/caseys-ames-3?adjust_creative=RyNyMQd7rvZeoBrbuIrc1w&utm_campaign=yelp_api_v3&utm_medium=api_v3_business_search&utm_source=RyNyMQd7rvZeoBrbuIrc1w", "review_count": 4, "categories": [{"alias": "pizza", "title": "Pizza"}], "rating": 3.5, "coordinates": {"latitude": 42.056891211427725, "longitude": -93.6441118353732}, "transactions": ["delivery"], "location": {"address1": "3612 Stange Rd", "address2": "", "address3": null, "city": "Ames", "zip_code": "50010", "country": "US", "state": "IA", "display_address": ["3612 Stange Rd", "Ames, IA 50010"]}, "phone": "+15152334055", "display_phone": "(515) 233-4055", "distance": 3881.3795459271846}, {"id": "Sh8Xo_8uC0ds8SCsH7LHdw", "alias": "time-to-roll-ames", "name": "Time To Roll", "image_url": "", "is_closed": false, "url": "https://www.yelp.com/biz/time-to-roll-ames?adjust_creative=RyNyMQd7rvZeoBrbuIrc1w&utm_campaign=yelp_api_v3&utm_medium=api_v3_business_search&utm_source=RyNyMQd7rvZeoBrbuIrc1w", "review_count": 2, "categories": [{"alias": "tex-mex", "title": "Tex-Mex"}], "rating": 2.0, "coordinates": {"latitude": 42.04934467248005, "longitude": -93.62272761762142}, "transactions": ["pickup", "delivery"], "location": {"address1": "2801 Grand Ave", "address2": "", "address3": null, "city": "Ames", "zip_code": "50010", "country": "US", "state": "IA", "display_address": ["2801 Grand Ave", "Ames, IA 50010"]}, "phone": "+15156867377", "display_phone": "(515) 686-7377", "distance": 2850.6023242426}, {"id": "BnVmnj-2rpnuIxwvuuG5Eg", "alias": "jimmy-johns-ames-4", "name": "Jimmy John's", "image_url": "https://s3-media1.fl.yelpcdn.com/bphoto/-N8utDxs_VLGnBJnpmYIZg/o.jpg", "is_closed": false, "url": "https://www.yelp.com/biz/jimmy-johns-ames-4?adjust_creative=RyNyMQd7rvZeoBrbuIrc1w&utm_campaign=yelp_api_v3&utm_medium=api_v3_business_search&utm_source=RyNyMQd7rvZeoBrbuIrc1w", "review_count": 3, "categories": [{"alias": "sandwiches", "title": "Sandwiches"}, {"alias": "delis", "title": "Delis"}, {"alias": "hotdogs", "title": "Fast Food"}], "rating": 3.5, "coordinates": {"latitude": 42.049308, "longitude": -93.622729}, "transactions": [], "price": "$", "location": {"address1": "2801 Grand Ave N", "address2": null, "address3": null, "city": "Ames", "zip_code": "50010", "country": "US", "state": "IA", "display_address": ["2801 Grand Ave N", "Ames, IA 50010"]}, "phone": "+15152327827", "display_phone": "(515) 232-7827", "distance": 2846.5586305138195}, {"id": "hXqtK2Ct-xnqGUT8T8I5kw", "alias": "lake-laverne-ames", "name": "Lake Laverne", "image_url": "https://s3-media4.fl.yelpcdn.com/bphoto/6euJsYkqfG7LhFR8mHcHBA/o.jpg", "is_closed": false, "url": "https://www.yelp.com/biz/lake-laverne-ames?adjust_creative=RyNyMQd7rvZeoBrbuIrc1w&utm_campaign=yelp_api_v3&utm_medium=api_v3_business_search&utm_source=RyNyMQd7rvZeoBrbuIrc1w", "review_count": 1, "categories": [{"alias": "lakes", "title": "Lakes"}], "rating": 5.0, "coordinates": {"latitude": 42.0239280306718, "longitude": -93.6474565218246}, "transactions": [], "location": {"address1": "311 Union Dr", "address2": "", "address3": null, "city": "Ames", "zip_code": "50012", "country": "US", "state": "IA", "display_address": ["311 Union Dr", "Ames, IA 50012"]}, "phone": "", "display_phone": "", "distance": 1587.806950248275}, {"id": "OshkIhw7yF1_mM_Pyo5lOQ", "alias": "charles-and-june-calhoun-park-ames", "name": "Charles and June Calhoun Park", "image_url": "https://s3-media4.fl.yelpcdn.com/bphoto/oJv8OTBvOHlNPd_peFjSpw/o.jpg", "is_closed": false, "url": "https://www.yelp.com/biz/charles-and-june-calhoun-park-ames?adjust_creative=RyNyMQd7rvZeoBrbuIrc1w&utm_campaign=yelp_api_v3&utm_medium=api_v3_business_search&utm_source=RyNyMQd7rvZeoBrbuIrc1w", "review_count": 2, "categories": [{"alias": "parks", "title": "Parks"}], "rating": 4.0, "coordinates": {"latitude": 42.062096, "longitude": -93.623093}, "transactions": [], "location": {"address1": "4320 Dawes Dr", "address2": "", "address3": "", "city": "Ames", "zip_code": "50010", "country": "US", "state": "IA", "display_address": ["4320 Dawes Dr", "Ames, IA 50010"]}, "phone": "", "display_phone": "", "distance": 4252.975341608244}], "total": 216, "region": {"center": {"longitude": -93.62823486328125, "latitude": 42.024036976644524}}}