{"businesses": [{"id": "_uZFTQiL8eXzmuOSiFsPJQ", "alias": "jimmy-johns-ames-3", "name": "Jimmy John's", "image_url": "https://s3-media3.fl.yelpcdn.com/bphoto/CWd7kz-hwy9AjscaE4778A/o.jpg", "is_closed": false, "url": "https://www.yelp.com/biz/jimmy-johns-ames-3?adjust_creative=RyNyMQd7rvZeoBrbuIrc1w&utm_campaign=yelp_api_v3&utm_medium=api_v3_business_search&utm_source=RyNyMQd7rvZeoBrbuIrc1w", "review_count": 11, "categories": [{"alias": "sandwiches", "title": "Sandwiches"}, {"alias": "delis", "title": "Delis"}, {"alias": "hotdogs", "title": "Fast Food"}], "rating": 2.0, "coordinates": {"latitude": 42.011072, "longitude": -93.679676}, "transactions": [], "price": "$", "location": {"address1": "4518 Mortensen Rd", "address2": "Ste. 110", "address3": "", "city": "Ames", "zip_code": "50014", "country": "US", "state": "IA", "display_address": ["4518 Mortensen Rd", "Ste. 110", "Ames, IA 50014"]}, "phone": "+15152924444", "display_phone": "(515) 292-4444", "distance": 4478.281188486189}, {"id": "3MWJNtVqj45e7yPC4ksQKQ", "alias": "papa-johns-pizza-ames", "name": "Papa Johns Pizza", "image_url": "https://s3-media1.fl.yelpcdn.com/bphoto/7ZwHEXQ2OTysLL8L4UM8jA/o.jpg", "is_closed": false, "url": "https://www.yelp.com/biz/papa-johns-pizza-ames?adjust_creative=RyNyMQd7rvZeoBrbuIrc1w&utm_campaign=yelp_api_v3&utm_medium=api_v3_business_search&utm_source=RyNyMQd7rvZeoBrbuIrc1w", "review_count": 5, "categories": [{"alias": "pizza", "title": "Pizza"}, {"alias": "chicken_wings", "title": "Chicken Wings"}, {"alias": "hotdogs", "title": "Fast Food"}], "rating": 2.0, "coordinates": {"latitude": 42.04614, "longitude": -93.62105}, "transactions": ["pickup", "delivery"], "price": "$", "location": {"address1": "707 24th St", "address2": "", "address3": "", "city": "Ames", "zip_code": "50010", "country": "US", "state": "IA", "display_address": ["707 24th St", "Ames, IA 50010"]}, "phone": "+15159563737", "display_phone": "(515) 956-3737", "distance": 2529.8716120244944}, {"id": "K3QTCySALGZnkWxldLgTfQ", "alias": "jimmy-johns-ames-5", "name": "Jimmy John's", "image_url": "https://s3-media3.fl.yelpcdn.com/bphoto/v8Kx9jSqWWREw_LFlhZtfw/o.jpg", "is_closed": false, "url": "https://www.yelp.com/biz/jimmy-johns-ames-5?adjust_creative=RyNyMQd7rvZeoBrbuIrc1w&utm_campaign=yelp_api_v3&utm_medium=api_v3_business_search&utm_source=RyNyMQd7rvZeoBrbuIrc1w", "review_count": 9, "categories": [{"alias": "sandwiches", "title": "Sandwiches"}, {"alias": "hotdogs", "title": "Fast Food"}, {"alias": "delis", "title": "Delis"}], "rating": 2.5, "coordinates": {"latitude": 42.0351058, "longitude": -93.5764844}, "transactions": [], "price": "$", "location": {"address1": "2721 E 13th St", "address2": "Ste 102", "address3": "", "city": "Ames", "zip_code": "50010", "country": "US", "state": "IA", "display_address": ["2721 E 13th St", "Ste 102", "Ames, IA 50010"]}, "phone": "+15152329344", "display_phone": "(515) 232-9344", "distance": 4448.026574993707}, {"id": "WYsUq6iNjOt857DHB46Amw", "alias": "subway-ames-13", "name": "Subway", "image_url": "https://s3-media3.fl.yelpcdn.com/bphoto/XDnlZkyvqJbaSk8bg3k5sA/o.jpg", "is_closed": false, "url": "https://www.yelp.com/biz/subway-ames-13?adjust_creative=RyNyMQd7rvZeoBrbuIrc1w&utm_campaign=yelp_api_v3&utm_medium=api_v3_business_search&utm_source=RyNyMQd7rvZeoBrbuIrc1w", "review_count": 4, "categories": [{"alias": "hotdogs", "title": "Fast Food"}, {"alias": "sandwiches", "title": "Sandwiches"}], "rating": 2.5, "coordinates": {"latitude": 42.008828682536, "longitude": -93.5859809075976}, "transactions": ["pickup", "delivery"], "price": "$", "location": {"address1": "2108 Isaac Newton Dr", "address2": "", "address3": null, "city": "Ames", "zip_code": "50010", "country": "US", "state": "IA", "display_address": ["2108 Isaac Newton Dr", "Ames, IA 50010"]}, "phone": "+15155985100", "display_phone": "(515) 598-5100", "distance": 3878.760480755641}, {"id": "_w-h51l0eNymYP5PMv2Wmg", "alias": "arbys-ames-3", "name": "Arby's", "image_url": "https://s3-media4.fl.yelpcdn.com/bphoto/nuFv26izF3RF3dHngdrEkg/o.jpg", "is_closed": false, "url": "https://www.yelp.com/biz/arbys-ames-3?adjust_creative=RyNyMQd7rvZeoBrbuIrc1w&utm_campaign=yelp_api_v3&utm_medium=api_v3_business_search&utm_source=RyNyMQd7rvZeoBrbuIrc1w", "review_count": 2, "categories": [{"alias": "hotdogs", "title": "Fast Food"}, {"alias": "sandwiches", "title": "Sandwiches"}], "rating": 2.5, "coordinates": {"latitude": 42.0338490071382, "longitude": -93.5770563542799}, "transactions": ["pickup", "delivery"], "price": "$", "location": {"address1": "2720 E 13th St", "address2": "", "address3": "", "city": "Ames", "zip_code": "50010", "country": "US", "state": "IA", "display_address": ["2720 E 13th St", "Ames, IA 50010"]}, "phone": "+15152331670", "display_phone": "(515) 233-1670", "distance": 4365.684710925133}, {"id": "pgC6ns3LE4xXGtjV5iG74A", "alias": "blue-owl-bar-ames-2", "name": "Blue Owl Bar", "image_url": "https://s3-media4.fl.yelpcdn.com/bphoto/v02SugFhGWLnFa1VfpfI3w/o.jpg", "is_closed": false, "url": "https://www.yelp.com/biz/blue-owl-bar-ames-2?adjust_creative=RyNyMQd7rvZeoBrbuIrc1w&utm_campaign=yelp_api_v3&utm_medium=api_v3_business_search&utm_source=RyNyMQd7rvZeoBrbuIrc1w", "review_count": 7, "categories": [{"alias": "sportsbars", "title": "Sports Bars"}, {"alias": "whiskeybars", "title": "Whiskey Bars"}], "rating": 2.5, "coordinates": {"latitude": 42.020441, "longitude": -93.650464}, "transactions": ["delivery"], "price": "$$", "location": {"address1": "223 Welch Ave", "address2": null, "address3": "", "city": "Ames", "zip_code": "50014", "country": "US", "state": "IA", "display_address": ["223 Welch Ave", "Ames, IA 50014"]}, "phone": "+13092551571", "display_phone": "(309) 255-1571", "distance": 1879.1831037928828}, {"id": "11ywJ3gOBNx9xF41zSRUpQ", "alias": "subway-ames-7", "name": "Subway", "image_url": "https://s3-media2.fl.yelpcdn.com/bphoto/y_LrA1TidXsH38F1PtyNbA/o.jpg", "is_closed": false, "url": "https://www.yelp.com/biz/subway-ames-7?adjust_creative=RyNyMQd7rvZeoBrbuIrc1w&utm_campaign=yelp_api_v3&utm_medium=api_v3_business_search&utm_source=RyNyMQd7rvZeoBrbuIrc1w", "review_count": 4, "categories": [{"alias": "sandwiches", "title": "Sandwiches"}, {"alias": "hotdogs", "title": "Fast Food"}], "rating": 3.0, "coordinates": {"latitude": 42.0228882, "longitude": -93.6455383}, "transactions": [], "price": "$", "location": {"address1": "2229 Lincoln Way", "address2": "", "address3": "", "city": "Ames", "zip_code": "50014", "country": "US", "state": "IA", "display_address": ["2229 Lincoln Way", "Ames, IA 50014"]}, "phone": "+15152960950", "display_phone": "(515) 296-0950", "distance": 1469.839588023138}, {"id": "T1OPBq4I7F-wlTISCcLNPg", "alias": "the-angry-irishmen-ames-3", "name": "The Angry Irishmen", "image_url": "https://s3-media1.fl.yelpcdn.com/bphoto/mpsgOTHl48VeDAx4Usqc1g/o.jpg", "is_closed": false, "url": "https://www.yelp.com/biz/the-angry-irishmen-ames-3?adjust_creative=RyNyMQd7rvZeoBrbuIrc1w&utm_campaign=yelp_api_v3&utm_medium=api_v3_business_search&utm_source=RyNyMQd7rvZeoBrbuIrc1w", "review_count": 6, "categories": [{"alias": "bars", "title": "Bars"}], "rating": 3.0, "coordinates": {"latitude": 42.025390625, "longitude": -93.6113586425781}, "transactions": ["delivery"], "location": {"address1": "119 Main St", "address2": "", "address3": "", "city": "Ames", "zip_code": "50010", "country": "US", "state": "IA", "display_address": ["119 Main St", "Ames, IA 50010"]}, "phone": "+15152333910", "display_phone": "(515) 233-3910", "distance": 1405.7623588301674}, {"id": "jBrt83Wn8UClrBGaMSJEUg", "alias": "hungry-boys-ames", "name": "Hungry Boys", "image_url": "https://s3-media4.fl.yelpcdn.com/bphoto/mEOJp9KEOkxwhsaNzztBqw/o.jpg", "is_closed": false, "url": "https://www.yelp.com/biz/hungry-boys-ames?adjust_creative=RyNyMQd7rvZeoBrbuIrc1w&utm_campaign=yelp_api_v3&utm_medium=api_v3_business_search&utm_source=RyNyMQd7rvZeoBrbuIrc1w", "review_count": 2, "categories": [{"alias": "foodtrucks", "title": "Food Trucks"}, {"alias": "mexican", "title": "Mexican"}], "rating": 4.0, "coordinates": {"latitude": 42.021948090263, "longitude": -93.6503832042217}, "transactions": ["pickup", "delivery"], "location": {"address1": "121 Welch Ave", "address2": "", "address3": null, "city": "Ames", "zip_code": "50014", "country": "US", "state": "IA", "display_address": ["121 Welch Ave", "Ames, IA 50014"]}, "phone": "+15156122522", "display_phone": "(515) 612-2522", "distance": 1844.2265045434779}, {"id": "Pg9G-GY3zJT-NbU-ERH1CA", "alias": "dairy-queen-store-ames-3", "name": "Dairy Queen Store", "image_url": "https://s3-media3.fl.yelpcdn.com/bphoto/9G3H1HuoWhj4-btVXR0cEQ/o.jpg", "is_closed": false, "url": "https://www.yelp.com/biz/dairy-queen-store-ames-3?adjust_creative=RyNyMQd7rvZeoBrbuIrc1w&utm_campaign=yelp_api_v3&utm_medium=api_v3_business_search&utm_source=RyNyMQd7rvZeoBrbuIrc1w", "review_count": 4, "categories": [{"alias": "icecream", "title": "Ice Cream & Frozen Yogurt"}, {"alias": "hotdogs", "title": "Fast Food"}, {"alias": "burgers", "title": "Burgers"}], "rating": 2.0, "coordinates": {"latitude": 42.00896, "longitude": -93.585984}, "transactions": ["pickup", "delivery"], "price": "$", "location": {"address1": "2108 Isaac Newton Dr", "address2": "", "address3": null, "city": "Ames", "zip_code": "50010", "country": "US", "state": "IA", "display_address": ["2108 Isaac Newton Dr", "Ames, IA 50010"]}, "phone": "+15152335550", "display_phone": "(515) 233-5550", "distance": 3855.360046803861}, {"id": "1s4EOzxnzwrWly8BUfo8dw", "alias": "starbucks-ames-7", "name": "Starbucks", "image_url": "https://s3-media3.fl.yelpcdn.com/bphoto/BE86QcMK0kPcpjU10yLCug/o.jpg", "is_closed": false, "url": "https://www.yelp.com/biz/starbucks-ames-7?adjust_creative=RyNyMQd7rvZeoBrbuIrc1w&utm_campaign=yelp_api_v3&utm_medium=api_v3_business_search&utm_source=RyNyMQd7rvZeoBrbuIrc1w", "review_count": 1, "categories": [{"alias": "coffee", "title": "Coffee & Tea"}], "rating": 1.0, "coordinates": {"latitude": 42.01943327, "longitude": -93.60711605}, "transactions": ["delivery"], "location": {"address1": "320 S Duff Ave", "address2": null, "address3": "Target", "city": "Ames", "zip_code": "50010", "country": "US", "state": "IA", "display_address": ["320 S Duff Ave", "Target", "Ames, IA 50010"]}, "phone": "+15156639500", "display_phone": "(515) 663-9500", "distance": 1818.0879096719186}, {"id": "eNfgncjIsu0Y6-ncEoagHw", "alias": "kingpin-pizza-ames", "name": "Kingpin Pizza", "image_url": "https://s3-media2.fl.yelpcdn.com/bphoto/rEoUjJloRoeu-AUuvpCO0Q/o.jpg", "is_closed": false, "url": "https://www.yelp.com/biz/kingpin-pizza-ames?adjust_creative=RyNyMQd7rvZeoBrbuIrc1w&utm_campaign=yelp_api_v3&utm_medium=api_v3_business_search&utm_source=RyNyMQd7rvZeoBrbuIrc1w", "review_count": 5, "categories": [{"alias": "pizza", "title": "Pizza"}], "rating": 3.0, "coordinates": {"latitude": 42.01062, "longitude": -93.68078}, "transactions": ["pickup", "delivery"], "price": "$$", "location": {"address1": "1320 Dickinson Ave", "address2": "", "address3": "", "city": "Ames", "zip_code": "50014", "country": "US", "state": "IA", "display_address": ["1320 Dickinson Ave", "Ames, IA 50014"]}, "phone": "+15155982288", "display_phone": "(515) 598-2288", "distance": 4616.567169670523}, {"id": "KtWaq1LZ2swhMLX0DRVz6g", "alias": "subway-ames-14", "name": "Subway", "image_url": "https://s3-media4.fl.yelpcdn.com/bphoto/A35P_y-UZXhUZKB0My0Ddg/o.jpg", "is_closed": false, "url": "https://www.yelp.com/biz/subway-ames-14?adjust_creative=RyNyMQd7rvZeoBrbuIrc1w&utm_campaign=yelp_api_v3&utm_medium=api_v3_business_search&utm_source=RyNyMQd7rvZeoBrbuIrc1w", "review_count": 2, "categories": [{"alias": "sandwiches", "title": "Sandwiches"}, {"alias": "hotdogs", "title": "Fast Food"}], "rating": 1.5, "coordinates": {"latitude": 42.05448453601333, "longitude": -93.621034347444}, "transactions": ["pickup", "delivery"], "price": "$", "location": {"address1": "3218 Orion", "address2": "Ste 3", "address3": "", "city": "Ames", "zip_code": "50010", "country": "US", "state": "IA", "display_address": ["3218 Orion", "Ste 3", "Ames, IA 50010"]}, "phone": "+15152324527", "display_phone": "(515) 232-4527", "distance": 3437.4340981720384}, {"id": "cNdTD97gccNjVLzcU2NJtg", "alias": "west-ames-security-storage-ames", "name": "West Ames Security Storage", "image_url": "", "is_closed": false, "url": "https://www.yelp.com/biz/west-ames-security-storage-ames?adjust_creative=RyNyMQd7rvZeoBrbuIrc1w&utm_campaign=yelp_api_v3&utm_medium=api_v3_business_search&utm_source=RyNyMQd7rvZeoBrbuIrc1w", "review_count": 1, "categories": [{"alias": "restaurants", "title": "Restaurants"}], "rating": 1.0, "coordinates": {"latitude": 42.0235443115234, "longitude": -93.684440612793}, "transactions": [], "location": {"address1": "4923 Lincoln Way", "address2": "", "address3": "", "city": "Ames", "zip_code": "50014", "country": "US", "state": "IA", "display_address": ["4923 Lincoln Way", "Ames, IA 50014"]}, "phone": "+15152921388", "display_phone": "(515) 292-1388", "distance": 4644.177100521612}, {"id": "AjAwFH33P62jUWDH3QDo1Q", "alias": "gateway-hills-park-ames", "name": "Gateway Hills Park", "image_url": "", "is_closed": false, "url": "https://www.yelp.com/biz/gateway-hills-park-ames?adjust_creative=RyNyMQd7rvZeoBrbuIrc1w&utm_campaign=yelp_api_v3&utm_medium=api_v3_business_search&utm_source=RyNyMQd7rvZeoBrbuIrc1w", "review_count": 1, "categories": [{"alias": "parks", "title": "Parks"}], "rating": 5.0, "coordinates": {"latitude": 42.00808144513794, "longitude": -93.6474857479334}, "transactions": [], "location": {"address1": "1500 Gateway Hills Park Dr", "address2": "", "address3": null, "city": "Ames", "zip_code": "50014", "country": "US", "state": "IA", "display_address": ["1500 Gateway Hills Park Dr", "Ames, IA 50014"]}, "phone": "", "display_phone": "", "distance": 2382.639988123173}, {"id": "SgG5_88Dp_rFW7CkaLY3ew", "alias": "moore-memorial-park-ames", "name": "Moore Memorial Park", "image_url": "https://s3-media1.fl.yelpcdn.com/bphoto/opT2tqCNUlhJYNWGudEJMw/o.jpg", "is_closed": false, "url": "https://www.yelp.com/biz/moore-memorial-park-ames?adjust_creative=RyNyMQd7rvZeoBrbuIrc1w&utm_campaign=yelp_api_v3&utm_medium=api_v3_business_search&utm_source=RyNyMQd7rvZeoBrbuIrc1w", "review_count": 1, "categories": [{"alias": "parks", "title": "Parks"}], "rating": 5.0, "coordinates": {"latitude": 42.0452, "longitude": -93.65289}, "transactions": [], "location": {"address1": "3050 Northridge Pkwy", "address2": "", "address3": "", "city": "Ames", "zip_code": "50014", "country": "US", "state": "IA", "display_address": ["3050 Northridge Pkwy", "Ames, IA 50014"]}, "phone": "+15152395350", "display_phone": "(515) 239-5350", "distance": 2924.6715516381405}], "total": 216, "region": {"center": {"longitude": -93.62823486328125, "latitude": 42.024036976644524}}}