{"businesses": [{"id": "Z7Ooh_RyShqeH0GcD_FAow", "alias": "west-towne-pub-ames", "name": "West Towne Pub", "image_url": "https://s3-media3.fl.yelpcdn.com/bphoto/YLq6fWPso7H34BGelHu6-A/o.jpg", "is_closed": false, "url": "https://www.yelp.com/biz/west-towne-pub-ames?adjust_creative=RyNyMQd7rvZeoBrbuIrc1w&utm_campaign=yelp_api_v3&utm_medium=api_v3_business_search&utm_source=RyNyMQd7rvZeoBrbuIrc1w", "review_count": 106, "categories": [{"alias": "tradamerican", "title": "American (Traditional)"}, {"alias": "pubs", "title": "Pubs"}], "rating": 2.5, "coordinates": {"latitude": 42.0111294198109, "longitude": -93.6792386950552}, "transactions": ["delivery", "pickup"], "price": "$$", "location": {"address1": "4518 Mortensen Rd", "address2": "Ste 108", "address3": "", "city": "Ames", "zip_code": "50014", "country": "US", "state": "IA", "display_address": ["4518 Mortensen Rd", "Ste 108", "Ames, IA 50014"]}, "phone": "+15152924555", "display_phone": "(515) 292-4555", "distance": 4451.218535690478}, {"id": "TOh7-gpDVSka6UHM_SWOYw", "alias": "sportsman-lounge-ames", "name": "Sportsman Lounge", "image_url": "https://s3-media1.fl.yelpcdn.com/bphoto/mjn0TnsAhnyOXWQtWqmqOg/o.jpg", "is_closed": false, "url": "https://www.yelp.com/biz/sportsman-lounge-ames?adjust_creative=RyNyMQd7rvZeoBrbuIrc1w&utm_campaign=yelp_api_v3&utm_medium=api_v3_business_search&utm_source=RyNyMQd7rvZeoBrbuIrc1w", "review_count": 8, "categories": [{"alias": "lounges", "title": "Lounges"}], "rating": 4.5, "coordinates": {"latitude": 42.0253868103027, "longitude": -93.6115493774414}, "transactions": ["delivery"], "location": {"address1": "123 Main St", "address2": "", "address3": "", "city": "Ames", "zip_code": "50010", "country": "US", "state": "IA", "display_address": ["123 Main St", "Ames, IA 50010"]}, "phone": "+15152336320", "display_phone": "(515) 233-6320", "distance": 1386.6783741684433}, {"id": "2NmJMknViqoXpt208ut-ig", "alias": "w-and-z-mangolian-buffet-ames-2", "name": "W & Z Mangolian Buffet", "image_url": "https://s3-media2.fl.yelpcdn.com/bphoto/wq0XhMVsts3L8gpB_H3xog/o.jpg", "is_closed": false, "url": "https://www.yelp.com/biz/w-and-z-mangolian-buffet-ames-2?adjust_creative=RyNyMQd7rvZeoBrbuIrc1w&utm_campaign=yelp_api_v3&utm_medium=api_v3_business_search&utm_source=RyNyMQd7rvZeoBrbuIrc1w", "review_count": 65, "categories": [{"alias": "mongolian", "title": "Mongolian"}, {"alias": "buffets", "title": "Buffets"}, {"alias": "chinese", "title": "Chinese"}], "rating": 2.5, "coordinates": {"latitude": 42.0066074774389, "longitude": -93.6115398748069}, "transactions": ["delivery"], "price": "$$", "location": {"address1": "1620 S Kellogg Ave", "address2": "Ste 103", "address3": "", "city": "Ames", "zip_code": "50010", "country": "US", "state": "IA", "display_address": ["1620 S Kellogg Ave", "Ste 103", "Ames, IA 50010"]}, "phone": "+15152322338", "display_phone": "(515) 232-2338", "distance": 2378.7420959372953}, {"id": "4pdOUsgni7K7RE-T3uO_ww", "alias": "wingstop-ames", "name": "Wingstop", "image_url": "https://s3-media1.fl.yelpcdn.com/bphoto/oOpoP7coU8xrTCYE0A1VwQ/o.jpg", "is_closed": false, "url": "https://www.yelp.com/biz/wingstop-ames?adjust_creative=RyNyMQd7rvZeoBrbuIrc1w&utm_campaign=yelp_api_v3&utm_medium=api_v3_business_search&utm_source=RyNyMQd7rvZeoBrbuIrc1w", "review_count": 51, "categories": [{"alias": "chicken_wings", "title": "Chicken Wings"}], "rating": 2.5, "coordinates": {"latitude": 42.01568678951568, "longitude": -93.6113049296877}, "transactions": [], "price": "$", "location": {"address1": "703 S Duff Ave", "address2": "Ste 101", "address3": null, "city": "Ames", "zip_code": "50010", "country": "US", "state": "IA", "display_address": ["703 S Duff Ave", "Ste 101", "Ames, IA 50010"]}, "phone": "+15156639464", "display_phone": "(515) 663-9464", "distance": 1678.7036533731366}, {"id": "nKc3BPzwwmWUdH9fyl_drw", "alias": "chick-fil-a-ames", "name": "Chick-fil-A", "image_url": "https://s3-media2.fl.yelpcdn.com/bphoto/BNzChi-As2bOOAhU2SozPQ/o.jpg", "is_closed": false, "url": "https://www.yelp.com/biz/chick-fil-a-ames?adjust_creative=RyNyMQd7rvZeoBrbuIrc1w&utm_campaign=yelp_api_v3&utm_medium=api_v3_business_search&utm_source=RyNyMQd7rvZeoBrbuIrc1w", "review_count": 30, "categories": [{"alias": "salad", "title": "Salad"}, {"alias": "hotdogs", "title": "Fast Food"}, {"alias": "chickenshop", "title": "Chicken Shop"}], "rating": 3.0, "coordinates": {"latitude": 42.0204873, "longitude": -93.6096681}, "transactions": ["delivery"], "price": "$", "location": {"address1": "230 S Duff Ave", "address2": "", "address3": "", "city": "Ames", "zip_code": "50010", "country": "US", "state": "IA", "display_address": ["230 S Duff Ave", "Ames, IA 50010"]}, "phone": "+15152322599", "display_phone": "(515) 232-2599", "distance": 1583.6814632755627}, {"id": "cDpn-IRNNWuG8VMzSu6RtA", "alias": "chipotle-mexican-grill-ames", "name": "Chipotle Mexican Grill", "image_url": "https://s3-media2.fl.yelpcdn.com/bphoto/a7rNJx0N1d83SYdTOy0m9g/o.jpg", "is_closed": false, "url": "https://www.yelp.com/biz/chipotle-mexican-grill-ames?adjust_creative=RyNyMQd7rvZeoBrbuIrc1w&utm_campaign=yelp_api_v3&utm_medium=api_v3_business_search&utm_source=RyNyMQd7rvZeoBrbuIrc1w", "review_count": 40, "categories": [{"alias": "mexican", "title": "Mexican"}, {"alias": "hotdogs", "title": "Fast Food"}], "rating": 3.0, "coordinates": {"latitude": 42.017626025489, "longitude": -93.6109924941803}, "transactions": ["delivery", "pickup"], "price": "$", "location": {"address1": "435 S Duff Ave", "address2": "Ste 102", "address3": "", "city": "Ames", "zip_code": "50010", "country": "US", "state": "IA", "display_address": ["435 S Duff Ave", "Ste 102", "Ames, IA 50010"]}, "phone": "+15155982385", "display_phone": "(515) 598-2385", "distance": 1592.768255141459}, {"id": "NTgcU1LZnQD-QBVJQa30nQ", "alias": "burgies-coffee-and-tea-ames-2", "name": "Burgie's Coffee & Tea", "image_url": "https://s3-media2.fl.yelpcdn.com/bphoto/BqIlviCgzTKnUZQTgBYmpg/o.jpg", "is_closed": false, "url": "https://www.yelp.com/biz/burgies-coffee-and-tea-ames-2?adjust_creative=RyNyMQd7rvZeoBrbuIrc1w&utm_campaign=yelp_api_v3&utm_medium=api_v3_business_search&utm_source=RyNyMQd7rvZeoBrbuIrc1w", "review_count": 5, "categories": [{"alias": "coffee", "title": "Coffee & Tea"}], "rating": 4.0, "coordinates": {"latitude": 42.03244, "longitude": -93.6123099}, "transactions": ["delivery"], "price": "$", "location": {"address1": "1111 Duff Ave", "address2": "", "address3": "Mary Greeley Medical Center", "city": "Ames", "zip_code": "50010", "country": "US", "state": "IA", "display_address": ["1111 Duff Ave", "Mary Greeley Medical Center", "Ames, IA 50010"]}, "phone": "+15152392326", "display_phone": "(515) 239-2326", "distance": 1670.7839210458158}, {"id": "NpRSSb2wTbBYQ2d8vDseCQ", "alias": "marmalade-moon-ames", "name": "Marmalade Moon", "image_url": "https://s3-media2.fl.yelpcdn.com/bphoto/Y7fp_DTDpXn2KZh1d9F0XA/o.jpg", "is_closed": false, "url": "https://www.yelp.com/biz/marmalade-moon-ames?adjust_creative=RyNyMQd7rvZeoBrbuIrc1w&utm_campaign=yelp_api_v3&utm_medium=api_v3_business_search&utm_source=RyNyMQd7rvZeoBrbuIrc1w", "review_count": 3, "categories": [{"alias": "candy", "title": "Candy Stores"}, {"alias": "icecream", "title": "Ice Cream & Frozen Yogurt"}, {"alias": "giftshops", "title": "Gift Shops"}], "rating": 5.0, "coordinates": {"latitude": 42.02539, "longitude": -93.61249}, "transactions": [], "location": {"address1": "207 Main St", "address2": "", "address3": null, "city": "Ames", "zip_code": "50010", "country": "US", "state": "IA", "display_address": ["207 Main St", "Ames, IA 50010"]}, "phone": "+15158156434", "display_phone": "(515) 815-6434", "distance": 1307.4059828916738}, {"id": "43KsMKw_g1ntPDE7QK1VLQ", "alias": "five-guys-ames", "name": "Five Guys", "image_url": "https://s3-media1.fl.yelpcdn.com/bphoto/RGCteVLgoYShfWMj1oH_9w/o.jpg", "is_closed": false, "url": "https://www.yelp.com/biz/five-guys-ames?adjust_creative=RyNyMQd7rvZeoBrbuIrc1w&utm_campaign=yelp_api_v3&utm_medium=api_v3_business_search&utm_source=RyNyMQd7rvZeoBrbuIrc1w", "review_count": 17, "categories": [{"alias": "hotdogs", "title": "Fast Food"}, {"alias": "burgers", "title": "Burgers"}], "rating": 3.0, "coordinates": {"latitude": 42.0160063, "longitude": -93.6109174}, "transactions": ["delivery"], "location": {"address1": "535 S Duff Ave", "address2": "Ste 101", "address3": null, "city": "Ames", "zip_code": "50010", "country": "US", "state": "IA", "display_address": ["535 S Duff Ave", "Ste 101", "Ames, IA 50010"]}, "phone": "+15156205163", "display_phone": "(515) 620-5163", "distance": 1686.3840845891057}, {"id": "fxjPHQJZzFI0kTAWygi4sg", "alias": "arbys-ames-2", "name": "Arby's", "image_url": "https://s3-media2.fl.yelpcdn.com/bphoto/_EKjhsfN4LPrIVWUUQo8OA/o.jpg", "is_closed": false, "url": "https://www.yelp.com/biz/arbys-ames-2?adjust_creative=RyNyMQd7rvZeoBrbuIrc1w&utm_campaign=yelp_api_v3&utm_medium=api_v3_business_search&utm_source=RyNyMQd7rvZeoBrbuIrc1w", "review_count": 13, "categories": [{"alias": "hotdogs", "title": "Fast Food"}, {"alias": "sandwiches", "title": "Sandwiches"}], "rating": 3.0, "coordinates": {"latitude": 42.0186283189487, "longitude": -93.6108959742184}, "transactions": ["delivery", "pickup"], "price": "$", "location": {"address1": "409 S Duff Ave", "address2": "", "address3": "", "city": "Ames", "zip_code": "50010", "country": "US", "state": "IA", "display_address": ["409 S Duff Ave", "Ames, IA 50010"]}, "phone": "+15152320867", "display_phone": "(515) 232-0867", "distance": 1553.4409651536143}, {"id": "rkvuj442Gsjz1gjt_lNBEw", "alias": "taqueria-rositas-ames", "name": "Taqueria Rositas", "image_url": "https://s3-media2.fl.yelpcdn.com/bphoto/lRgDY5n6OiimPdDDWfoGkg/o.jpg", "is_closed": false, "url": "https://www.yelp.com/biz/taqueria-rositas-ames?adjust_creative=RyNyMQd7rvZeoBrbuIrc1w&utm_campaign=yelp_api_v3&utm_medium=api_v3_business_search&utm_source=RyNyMQd7rvZeoBrbuIrc1w", "review_count": 3, "categories": [{"alias": "foodtrucks", "title": "Food Trucks"}, {"alias": "mexican", "title": "Mexican"}], "rating": 4.5, "coordinates": {"latitude": 42.0221453692401, "longitude": -93.6117448459717}, "transactions": ["pickup"], "price": "$", "location": {"address1": "118 S Sherman Ave", "address2": "", "address3": "", "city": "Ames", "zip_code": "50010", "country": "US", "state": "IA", "display_address": ["118 S Sherman Ave", "Ames, IA 50010"]}, "phone": "+15152334051", "display_phone": "(515) 233-4051", "distance": 1378.2830033535547}, {"id": "ZRpCHkvFfEMRanU8_H-l-A", "alias": "isu-creamery-ames", "name": "ISU Creamery", "image_url": "https://s3-media1.fl.yelpcdn.com/bphoto/zC25sOWmBvy4jj_tSbi4kg/o.jpg", "is_closed": false, "url": "https://www.yelp.com/biz/isu-creamery-ames?adjust_creative=RyNyMQd7rvZeoBrbuIrc1w&utm_campaign=yelp_api_v3&utm_medium=api_v3_business_search&utm_source=RyNyMQd7rvZeoBrbuIrc1w", "review_count": 2, "categories": [{"alias": "icecream", "title": "Ice Cream & Frozen Yogurt"}, {"alias": "waffles", "title": "Waffles"}], "rating": 4.5, "coordinates": {"latitude": 42.02688, "longitude": -93.6426}, "transactions": [], "location": {"address1": "536 Farm House Ln", "address2": "", "address3": null, "city": "Ames", "zip_code": "50011", "country": "US", "state": "IA", "display_address": ["536 Farm House Ln", "Ames, IA 50011"]}, "phone": "+15152943612", "display_phone": "(515) 294-3612", "distance": 1221.9044006173817}, {"id": "fLwU63jPFlFuYEeipuMVig", "alias": "subway-ames-16", "name": "Subway", "image_url": "https://s3-media1.fl.yelpcdn.com/bphoto/PY09mi3XRO_PEzMR9u6wwg/o.jpg", "is_closed": false, "url": "https://www.yelp.com/biz/subway-ames-16?adjust_creative=RyNyMQd7rvZeoBrbuIrc1w&utm_campaign=yelp_api_v3&utm_medium=api_v3_business_search&utm_source=RyNyMQd7rvZeoBrbuIrc1w", "review_count": 6, "categories": [{"alias": "sandwiches", "title": "Sandwiches"}, {"alias": "hotdogs", "title": "Fast Food"}], "rating": 3.5, "coordinates": {"latitude": 42.0224993249659, "longitude": -93.6138821536617}, "transactions": ["delivery", "pickup"], "price": "$", "location": {"address1": "302 Lincoln Way", "address2": "Ste 101", "address3": "", "city": "Ames", "zip_code": "50010", "country": "US", "state": "IA", "display_address": ["302 Lincoln Way", "Ste 101", "Ames, IA 50010"]}, "phone": "+15152322181", "display_phone": "(515) 232-2181", "distance": 1197.85115755752}, {"id": "KI9aGWhNnXBWpukGZA-OJQ", "alias": "dairy-queen-store-ames-2", "name": "Dairy Queen Store", "image_url": "https://s3-media2.fl.yelpcdn.com/bphoto/LS3y7tZgiQY8JZi0uP2dog/o.jpg", "is_closed": false, "url": "https://www.yelp.com/biz/dairy-queen-store-ames-2?adjust_creative=RyNyMQd7rvZeoBrbuIrc1w&utm_campaign=yelp_api_v3&utm_medium=api_v3_business_search&utm_source=RyNyMQd7rvZeoBrbuIrc1w", "review_count": 4, "categories": [{"alias": "icecream", "title": "Ice Cream & Frozen Yogurt"}, {"alias": "hotdogs", "title": "Fast Food"}, {"alias": "burgers", "title": "Burgers"}], "rating": 4.5, "coordinates": {"latitude": 42.054859161377, "longitude": -93.6212463378906}, "transactions": ["delivery", "pickup"], "price": "$", "location": {"address1": "3308 Orion Dr", "address2": "", "address3": "", "city": "Ames", "zip_code": "50010", "country": "US", "state": "IA", "display_address": ["3308 Orion Dr", "Ames, IA 50010"]}, "phone": "+15156630819", "display_phone": "(515) 663-0819", "distance": 3483.4509616137398}, {"id": "j_USfr5FBclUST14Zjc6DQ", "alias": "cookies-etc-ames-3", "name": "Cookies, etc.", "image_url": "https://s3-media1.fl.yelpcdn.com/bphoto/jchfVuWBzyd9Y9yI4i3zAA/o.jpg", "is_closed": false, "url": "https://www.yelp.com/biz/cookies-etc-ames-3?adjust_creative=RyNyMQd7rvZeoBrbuIrc1w&utm_campaign=yelp_api_v3&utm_medium=api_v3_business_search&utm_source=RyNyMQd7rvZeoBrbuIrc1w", "review_count": 5, "categories": [{"alias": "desserts", "title": "Desserts"}], "rating": 4.5, "coordinates": {"latitude": 42.049311, "longitude": -93.6225906}, "transactions": [], "price": "$$", "location": {"address1": "2801 Grand Ave", "address2": "", "address3": "", "city": "Ames", "zip_code": "50010", "country": "US", "state": "IA", "display_address": ["2801 Grand Ave", "Ames, IA 50010"]}, "phone": "+15156632211", "display_phone": "(515) 663-2211", "distance": 2848.735877356685}, {"id": "mFZzakem9Qo98iclGHkE-Q", "alias": "perfect-games-ames", "name": "Perfect Games", "image_url": "https://s3-media2.fl.yelpcdn.com/bphoto/EOsEBzI_Lp3c3EBF-nLD8A/o.jpg", "is_closed": false, "url": "https://www.yelp.com/biz/perfect-games-ames?adjust_creative=RyNyMQd7rvZeoBrbuIrc1w&utm_campaign=yelp_api_v3&utm_medium=api_v3_business_search&utm_source=RyNyMQd7rvZeoBrbuIrc1w", "review_count": 35, "categories": [{"alias": "pizza", "title": "Pizza"}, {"alias": "bowling", "title": "Bowling"}, {"alias": "arcades", "title": "Arcades"}], "rating": 2.5, "coordinates": {"latitude": 42.0106594, "longitude": -93.6811173}, "transactions": [], "price": "$$", "location": {"address1": "1320 Dickinson Ave", "address2": null, "address3": "", "city": "Ames", "zip_code": "50014", "country": "US", "state": "IA", "display_address": ["1320 Dickinson Ave", "Ames, IA 50014"]}, "phone": "+15155982695", "display_phone": "(515) 598-2695", "distance": 4614.990316394052}, {"id": "LXUiO1Z0FtyL7MdRD9lLmg", "alias": "panera-bread-ames", "name": "Panera Bread", "image_url": "https://s3-media3.fl.yelpcdn.com/bphoto/n9aK4ekep0li7ntwkS_HYA/o.jpg", "is_closed": false, "url": "https://www.yelp.com/biz/panera-bread-ames?adjust_creative=RyNyMQd7rvZeoBrbuIrc1w&utm_campaign=yelp_api_v3&utm_medium=api_v3_business_search&utm_source=RyNyMQd7rvZeoBrbuIrc1w", "review_count": 48, "categories": [{"alias": "sandwiches", "title": "Sandwiches"}, {"alias": "salad", "title": "Salad"}, {"alias": "soup", "title": "Soup"}], "rating": 2.5, "coordinates": {"latitude": 42.019768, "longitude": -93.611103}, "transactions": ["delivery", "pickup"], "price": "$$", "location": {"address1": "309 S Duff Avenue", "address2": "", "address3": "", "city": "Ames", "zip_code": "50010", "country": "US", "state": "IA", "display_address": ["309 S Duff Avenue", "Ames, IA 50010"]}, "phone": "+15159564580", "display_phone": "(515) 956-4580", "distance": 1488.8375330211863}, {"id": "a1CQyQRR2yRmQUX_X7iIUQ", "alias": "jimmy-johns-ames-2", "name": "Jimmy John's", "image_url": "https://s3-media1.fl.yelpcdn.com/bphoto/mRnXmTivyNTFTYgpe84ZWA/o.jpg", "is_closed": false, "url": "https://www.yelp.com/biz/jimmy-johns-ames-2?adjust_creative=RyNyMQd7rvZeoBrbuIrc1w&utm_campaign=yelp_api_v3&utm_medium=api_v3_business_search&utm_source=RyNyMQd7rvZeoBrbuIrc1w", "review_count": 19, "categories": [{"alias": "sandwiches", "title": "Sandwiches"}, {"alias": "delis", "title": "Delis"}, {"alias": "hotdogs", "title": "Fast Food"}], "rating": 3.0, "coordinates": {"latitude": 42.0216162844735, "longitude": -93.650444780426}, "transactions": [], "price": "$", "location": {"address1": "135 Welch Ave", "address2": "", "address3": "", "city": "Ames", "zip_code": "50014", "country": "US", "state": "IA", "display_address": ["135 Welch Ave", "Ames, IA 50014"]}, "phone": "+15152922868", "display_phone": "(515) 292-2868", "distance": 1854.272705733579}, {"id": "ZXKtTPONw2ZJtqgsc7yvPg", "alias": "mcfarland-park-ames", "name": "McFarland Park", "image_url": "https://s3-media2.fl.yelpcdn.com/bphoto/_yT_kj4vfiOGBCMC2s25CQ/o.jpg", "is_closed": false, "url": "https://www.yelp.com/biz/mcfarland-park-ames?adjust_creative=RyNyMQd7rvZeoBrbuIrc1w&utm_campaign=yelp_api_v3&utm_medium=api_v3_business_search&utm_source=RyNyMQd7rvZeoBrbuIrc1w", "review_count": 4, "categories": [{"alias": "parks", "title": "Parks"}], "rating": 5.0, "coordinates": {"latitude": 42.0928725546144, "longitude": -93.5696125030518}, "transactions": [], "location": {"address1": "56461 180th St", "address2": "", "address3": "", "city": "Ames", "zip_code": "50010", "country": "US", "state": "IA", "display_address": ["56461 180th St", "Ames, IA 50010"]}, "phone": "+15152322516", "display_phone": "(515) 232-2516", "distance": 9055.893135301701}, {"id": "BjZgehiOovNS7Z-gf0XiwA", "alias": "cold-stone-creamery-ames", "name": "Cold Stone Creamery", "image_url": "https://s3-media3.fl.yelpcdn.com/bphoto/CGL3D4QsD74j0sXZv17DqA/o.jpg", "is_closed": false, "url": "https://www.yelp.com/biz/cold-stone-creamery-ames?adjust_creative=RyNyMQd7rvZeoBrbuIrc1w&utm_campaign=yelp_api_v3&utm_medium=api_v3_business_search&utm_source=RyNyMQd7rvZeoBrbuIrc1w", "review_count": 12, "categories": [{"alias": "icecream", "title": "Ice Cream & Frozen Yogurt"}, {"alias": "customcakes", "title": "Custom Cakes"}, {"alias": "cupcakes", "title": "Cupcakes"}], "rating": 3.5, "coordinates": {"latitude": 42.010817670375495, "longitude": -93.60947655495262}, "transactions": ["delivery", "pickup"], "price": "$$", "location": {"address1": "1310 S Duff Ave", "address2": "Ste 101", "address3": null, "city": "Ames", "zip_code": "50010", "country": "US", "state": "IA", "display_address": ["1310 S Duff Ave", "Ste 101", "Ames, IA 50010"]}, "phone": "+15152333911", "display_phone": "(515) 233-3911", "distance": 2135.898793487554}, {"id": "GuzkV8gPB6m-9VflAACioA", "alias": "ames-historical-society-ames", "name": "Ames Historical Society", "image_url": "https://s3-media2.fl.yelpcdn.com/bphoto/TmoPQ6F0ZMQadfA_kPE5Mg/o.jpg", "is_closed": false, "url": "https://www.yelp.com/biz/ames-historical-society-ames?adjust_creative=RyNyMQd7rvZeoBrbuIrc1w&utm_campaign=yelp_api_v3&utm_medium=api_v3_business_search&utm_source=RyNyMQd7rvZeoBrbuIrc1w", "review_count": 2, "categories": [{"alias": "museums", "title": "Museums"}], "rating": 5.0, "coordinates": {"latitude": 42.0257339477539, "longitude": -93.6117858886719}, "transactions": [], "location": {"address1": "416 Douglas", "address2": "Ste 101", "address3": "", "city": "Ames", "zip_code": "50010", "country": "US", "state": "IA", "display_address": ["416 Douglas", "Ste 101", "Ames, IA 50010"]}, "phone": "+15152322148", "display_phone": "(515) 232-2148", "distance": 1371.6755797609103}, {"id": "qiDHQJEDwLIhlNIOBU1g3w", "alias": "ricas-pupusas-pupuseria-mary-ames", "name": "Ricas Pupusas Pupuseria Mary", "image_url": "https://s3-media1.fl.yelpcdn.com/bphoto/9nX3d9QlLmBSQUiH8dYXlQ/o.jpg", "is_closed": false, "url": "https://www.yelp.com/biz/ricas-pupusas-pupuseria-mary-ames?adjust_creative=RyNyMQd7rvZeoBrbuIrc1w&utm_campaign=yelp_api_v3&utm_medium=api_v3_business_search&utm_source=RyNyMQd7rvZeoBrbuIrc1w", "review_count": 2, "categories": [{"alias": "foodtrucks", "title": "Food Trucks"}, {"alias": "mexican", "title": "Mexican"}, {"alias": "salvadoran", "title": "Salvadoran"}], "rating": 5.0, "coordinates": {"latitude": 42.0226086277969, "longitude": -93.6038351431489}, "transactions": [], "location": {"address1": "604 E Lincoln Way", "address2": "", "address3": null, "city": "Ames", "zip_code": "50010", "country": "US", "state": "IA", "display_address": ["604 E Lincoln Way", "Ames, IA 50010"]}, "phone": "+15154510800", "display_phone": "(515) 451-0800", "distance": 2021.7516207235212}, {"id": "93Lr09Pkd0AdM9jkztvWNg", "alias": "pancheros-mexican-grill-ames", "name": "Pancheros Mexican Grill", "image_url": "https://s3-media2.fl.yelpcdn.com/bphoto/bULJyxissEczO3DuRfpZDQ/o.jpg", "is_closed": false, "url": "https://www.yelp.com/biz/pancheros-mexican-grill-ames?adjust_creative=RyNyMQd7rvZeoBrbuIrc1w&utm_campaign=yelp_api_v3&utm_medium=api_v3_business_search&utm_source=RyNyMQd7rvZeoBrbuIrc1w", "review_count": 62, "categories": [{"alias": "mexican", "title": "Mexican"}], "rating": 2.0, "coordinates": {"latitude": 42.01085, "longitude": -93.60968}, "transactions": ["delivery"], "price": "$", "location": {"address1": "1310 S Duff Ave", "address2": "Ste 103", "address3": "", "city": "Ames", "zip_code": "50010", "country": "US", "state": "IA", "display_address": ["1310 S Duff Ave", "Ste 103", "Ames, IA 50010"]}, "phone": "+15152334600", "display_phone": "(515) 233-4600", "distance": 2136.2889419696708}, {"id": "wxRYUmhnZGjmjlJNfiT0yw", "alias": "mcdonald-s-ames", "name": "McDonald\u2019s", "image_url": "https://s3-media4.fl.yelpcdn.com/bphoto/62qd_WXbfNYQyN2kGmkT0g/o.jpg", "is_closed": false, "url": "https://www.yelp.com/biz/mcdonald-s-ames?adjust_creative=RyNyMQd7rvZeoBrbuIrc1w&utm_campaign=yelp_api_v3&utm_medium=api_v3_business_search&utm_source=RyNyMQd7rvZeoBrbuIrc1w", "review_count": 27, "categories": [{"alias": "hotdogs", "title": "Fast Food"}, {"alias": "burgers", "title": "Burgers"}, {"alias": "coffee", "title": "Coffee & Tea"}], "rating": 2.0, "coordinates": {"latitude": 42.02332752329, "longitude": -93.6685455590623}, "transactions": ["delivery"], "price": "$", "location": {"address1": "3621 Lincoln Way", "address2": "", "address3": "", "city": "Ames", "zip_code": "50010", "country": "US", "state": "IA", "display_address": ["3621 Lincoln Way", "Ames, IA 50010"]}, "phone": "+15152925200", "display_phone": "(515) 292-5200", "distance": 3330.7220300503213}, {"id": "wYQA_c1LuBRl2KH73t8sng", "alias": "dominos-pizza-ames-3", "name": "Domino's Pizza", "image_url": "https://s3-media3.fl.yelpcdn.com/bphoto/vjZDaHIpl_Dts-JqyjsqOA/o.jpg", "is_closed": false, "url": "https://www.yelp.com/biz/dominos-pizza-ames-3?adjust_creative=RyNyMQd7rvZeoBrbuIrc1w&utm_campaign=yelp_api_v3&utm_medium=api_v3_business_search&utm_source=RyNyMQd7rvZeoBrbuIrc1w", "review_count": 17, "categories": [{"alias": "chicken_wings", "title": "Chicken Wings"}, {"alias": "pizza", "title": "Pizza"}, {"alias": "sandwiches", "title": "Sandwiches"}], "rating": 3.0, "coordinates": {"latitude": 42.021913, "longitude": -93.651548}, "transactions": [], "price": "$", "location": {"address1": "122 Hayward Ave", "address2": "", "address3": null, "city": "Ames", "zip_code": "50014", "country": "US", "state": "IA", "display_address": ["122 Hayward Ave", "Ames, IA 50014"]}, "phone": "+15152923030", "display_phone": "(515) 292-3030", "distance": 1940.1865819237858}, {"id": "GpkB5FtU_AdqkuScwU0o-g", "alias": "pizza-ranch-ames", "name": "Pizza Ranch", "image_url": "https://s3-media2.fl.yelpcdn.com/bphoto/yIN_vYzZwXkvZUmqio9VFA/o.jpg", "is_closed": false, "url": "https://www.yelp.com/biz/pizza-ranch-ames?adjust_creative=RyNyMQd7rvZeoBrbuIrc1w&utm_campaign=yelp_api_v3&utm_medium=api_v3_business_search&utm_source=RyNyMQd7rvZeoBrbuIrc1w", "review_count": 37, "categories": [{"alias": "pizza", "title": "Pizza"}, {"alias": "buffets", "title": "Buffets"}], "rating": 2.0, "coordinates": {"latitude": 42.03579, "longitude": -93.58216}, "transactions": ["delivery", "pickup"], "price": "$$", "location": {"address1": "1404 Boston Ave", "address2": null, "address3": null, "city": "Ames", "zip_code": "50010", "country": "US", "state": "IA", "display_address": ["1404 Boston Ave", "Ames, IA 50010"]}, "phone": "+15152321999", "display_phone": "(515) 232-1999", "distance": 4043.5613156468885}, {"id": "93cId8_aNIeejDAlT74JpQ", "alias": "starbucks-ames-9", "name": "Starbucks", "image_url": "https://s3-media1.fl.yelpcdn.com/bphoto/0KeivM-KAuhEr3V5uzeBvQ/o.jpg", "is_closed": false, "url": "https://www.yelp.com/biz/starbucks-ames-9?adjust_creative=RyNyMQd7rvZeoBrbuIrc1w&utm_campaign=yelp_api_v3&utm_medium=api_v3_business_search&utm_source=RyNyMQd7rvZeoBrbuIrc1w", "review_count": 1, "categories": [{"alias": "coffee", "title": "Coffee & Tea"}], "rating": 5.0, "coordinates": {"latitude": 42.02321937, "longitude": -93.61721789}, "transactions": [], "location": {"address1": "507 Lincoln Way", "address2": "", "address3": "", "city": "Ames", "zip_code": "50010", "country": "US", "state": "IA", "display_address": ["507 Lincoln Way", "Ames, IA 50010"]}, "phone": "+15152321242", "display_phone": "(515) 232-1242", "distance": 914.5666289630054}, {"id": "cdIK8PJfqvQWLf0z19_oyg", "alias": "dairy-queen-store-ames", "name": "Dairy Queen Store", "image_url": "https://s3-media2.fl.yelpcdn.com/bphoto/8XH7twxqUAGe_i-a7WpOTw/o.jpg", "is_closed": false, "url": "https://www.yelp.com/biz/dairy-queen-store-ames?adjust_creative=RyNyMQd7rvZeoBrbuIrc1w&utm_campaign=yelp_api_v3&utm_medium=api_v3_business_search&utm_source=RyNyMQd7rvZeoBrbuIrc1w", "review_count": 13, "categories": [{"alias": "icecream", "title": "Ice Cream & Frozen Yogurt"}, {"alias": "hotdogs", "title": "Fast Food"}, {"alias": "burgers", "title": "Burgers"}], "rating": 2.5, "coordinates": {"latitude": 42.0225257873535, "longitude": -93.6144485473633}, "transactions": ["delivery", "pickup"], "price": "$", "location": {"address1": "316 Lincoln Way", "address2": "", "address3": "", "city": "Ames", "zip_code": "50010", "country": "US", "state": "IA", "display_address": ["316 Lincoln Way", "Ames, IA 50010"]}, "phone": "+15152325715", "display_phone": "(515) 232-5715", "distance": 1161.295842543148}, {"id": "I-H374L1RENNaOZ7vpAxbg", "alias": "pasta-al-forno-ames", "name": "Pasta Al Forno", "image_url": "https://s3-media1.fl.yelpcdn.com/bphoto/PC4a21npBOUIu9oauVPAAA/o.jpg", "is_closed": false, "url": "https://www.yelp.com/biz/pasta-al-forno-ames?adjust_creative=RyNyMQd7rvZeoBrbuIrc1w&utm_campaign=yelp_api_v3&utm_medium=api_v3_business_search&utm_source=RyNyMQd7rvZeoBrbuIrc1w", "review_count": 7, "categories": [{"alias": "italian", "title": "Italian"}], "rating": 3.0, "coordinates": {"latitude": 42.034907716218314, "longitude": -93.57849676480338}, "transactions": [], "location": {"address1": "2601 E 13th St", "address2": "", "address3": null, "city": "Ames", "zip_code": "50010", "country": "US", "state": "IA", "display_address": ["2601 E 13th St", "Ames, IA 50010"]}, "phone": "+15153371422", "display_phone": "(515) 337-1422", "distance": 4282.287670485796}, {"id": "wg70oMT5wjG9McX5AE9dkw", "alias": "taco-bell-ames-3", "name": "Taco Bell", "image_url": "https://s3-media2.fl.yelpcdn.com/bphoto/8_rApfYzQVAAvmuBUTPrEQ/o.jpg", "is_closed": false, "url": "https://www.yelp.com/biz/taco-bell-ames-3?adjust_creative=RyNyMQd7rvZeoBrbuIrc1w&utm_campaign=yelp_api_v3&utm_medium=api_v3_business_search&utm_source=RyNyMQd7rvZeoBrbuIrc1w", "review_count": 47, "categories": [{"alias": "hotdogs", "title": "Fast Food"}, {"alias": "mexican", "title": "Mexican"}], "rating": 1.5, "coordinates": {"latitude": 42.018508, "longitude": -93.610538}, "transactions": ["delivery", "pickup"], "price": "$", "location": {"address1": "421 S Duff Avenue", "address2": null, "address3": null, "city": "Ames", "zip_code": "50010", "country": "US", "state": "IA", "display_address": ["421 S Duff Avenue", "Ames, IA 50010"]}, "phone": "+15152680100", "display_phone": "(515) 268-0100", "distance": 1585.8869405982596}, {"id": "rmYIsdPaphMiR2eojrtacw", "alias": "wendys-ames-3", "name": "Wendy's", "image_url": "https://s3-media1.fl.yelpcdn.com/bphoto/fV3SPfR9KSbTyMzG1aNO0w/o.jpg", "is_closed": false, "url": "https://www.yelp.com/biz/wendys-ames-3?adjust_creative=RyNyMQd7rvZeoBrbuIrc1w&utm_campaign=yelp_api_v3&utm_medium=api_v3_business_search&utm_source=RyNyMQd7rvZeoBrbuIrc1w", "review_count": 22, "categories": [{"alias": "burgers", "title": "Burgers"}, {"alias": "hotdogs", "title": "Fast Food"}], "rating": 2.0, "coordinates": {"latitude": 42.016406, "longitude": -93.609664}, "transactions": ["delivery"], "price": "$", "location": {"address1": "528 S. Duff Avenue", "address2": null, "address3": null, "city": "Ames", "zip_code": "50010", "country": "US", "state": "IA", "display_address": ["528 S. Duff Avenue", "Ames, IA 50010"]}, "phone": "+15152329369", "display_phone": "(515) 232-9369", "distance": 1754.017859977077}, {"id": "7hoE90U101Z8E2-s9jYdJg", "alias": "papa-johns-pizza-ames-3", "name": "Papa Johns Pizza", "image_url": "https://s3-media1.fl.yelpcdn.com/bphoto/iidJN4X60li3ulI3tNHCcw/o.jpg", "is_closed": false, "url": "https://www.yelp.com/biz/papa-johns-pizza-ames-3?adjust_creative=RyNyMQd7rvZeoBrbuIrc1w&utm_campaign=yelp_api_v3&utm_medium=api_v3_business_search&utm_source=RyNyMQd7rvZeoBrbuIrc1w", "review_count": 10, "categories": [{"alias": "pizza", "title": "Pizza"}, {"alias": "chicken_wings", "title": "Chicken Wings"}, {"alias": "hotdogs", "title": "Fast Food"}], "rating": 3.0, "coordinates": {"latitude": 42.023137582905925, "longitude": -93.6641979217756}, "transactions": ["delivery", "pickup"], "price": "$", "location": {"address1": "3335 Lincoln Way", "address2": "", "address3": "", "city": "Ames", "zip_code": "50014", "country": "US", "state": "IA", "display_address": ["3335 Lincoln Way", "Ames, IA 50014"]}, "phone": "+15152964949", "display_phone": "(515) 296-4949", "distance": 2972.34680247819}, {"id": "HBpd1WfQrbh0iDEd9fH0Mw", "alias": "dunkin-ames", "name": "Dunkin'", "image_url": "https://s3-media2.fl.yelpcdn.com/bphoto/dDXyADDBdjBnxIUlPkvjEg/o.jpg", "is_closed": false, "url": "https://www.yelp.com/biz/dunkin-ames?adjust_creative=RyNyMQd7rvZeoBrbuIrc1w&utm_campaign=yelp_api_v3&utm_medium=api_v3_business_search&utm_source=RyNyMQd7rvZeoBrbuIrc1w", "review_count": 49, "categories": [{"alias": "donuts", "title": "Donuts"}, {"alias": "coffee", "title": "Coffee & Tea"}], "rating": 2.0, "coordinates": {"latitude": 42.0225441831602, "longitude": -93.65385893493556}, "transactions": ["delivery", "pickup"], "price": "$", "location": {"address1": "2650 Lincoln Way", "address2": "", "address3": "", "city": "Ames", "zip_code": "50014", "country": "US", "state": "IA", "display_address": ["2650 Lincoln Way", "Ames, IA 50014"]}, "phone": "+15153371780", "display_phone": "(515) 337-1780", "distance": 2123.1390050077575}, {"id": "dmPv7ccRasonyjlCYx4FKA", "alias": "panda-express-ames-3", "name": "Panda Express", "image_url": "https://s3-media1.fl.yelpcdn.com/bphoto/QupGJAojszYjMNDHKTwSFg/o.jpg", "is_closed": false, "url": "https://www.yelp.com/biz/panda-express-ames-3?adjust_creative=RyNyMQd7rvZeoBrbuIrc1w&utm_campaign=yelp_api_v3&utm_medium=api_v3_business_search&utm_source=RyNyMQd7rvZeoBrbuIrc1w", "review_count": 34, "categories": [{"alias": "chinese", "title": "Chinese"}, {"alias": "hotdogs", "title": "Fast Food"}], "rating": 2.0, "coordinates": {"latitude": 42.017694, "longitude": -93.609777}, "transactions": ["delivery", "pickup"], "price": "$", "location": {"address1": "436 South Duff Avenue", "address2": "", "address3": null, "city": "Ames", "zip_code": "50010", "country": "US", "state": "IA", "display_address": ["436 South Duff Avenue", "Ames, IA 50010"]}, "phone": "+15152329312", "display_phone": "(515) 232-9312", "distance": 1679.8192210672332}, {"id": "z10LCS9npyGOingM0-TdKQ", "alias": "starbucks-ames-2", "name": "Starbucks", "image_url": "https://s3-media2.fl.yelpcdn.com/bphoto/I27_OaYQVFghwAOXtuJSeQ/o.jpg", "is_closed": false, "url": "https://www.yelp.com/biz/starbucks-ames-2?adjust_creative=RyNyMQd7rvZeoBrbuIrc1w&utm_campaign=yelp_api_v3&utm_medium=api_v3_business_search&utm_source=RyNyMQd7rvZeoBrbuIrc1w", "review_count": 2, "categories": [{"alias": "coffee", "title": "Coffee & Tea"}], "rating": 4.0, "coordinates": {"latitude": 42.02172265, "longitude": -93.66977873}, "transactions": ["delivery"], "price": "$", "location": {"address1": "3800 W Lincoln Way", "address2": "", "address3": "Hy Vee Foods-Ames #1", "city": "Ames", "zip_code": "50014", "country": "US", "state": "IA", "display_address": ["3800 W Lincoln Way", "Hy Vee Foods-Ames #1", "Ames, IA 50014"]}, "phone": "+15152925543", "display_phone": "(515) 292-5543", "distance": 3441.3301212220285}, {"id": "GxUrlksmRAMJuxCzmtLY5A", "alias": "starbucks-ames-8", "name": "Starbucks", "image_url": "", "is_closed": false, "url": "https://www.yelp.com/biz/starbucks-ames-8?adjust_creative=RyNyMQd7rvZeoBrbuIrc1w&utm_campaign=yelp_api_v3&utm_medium=api_v3_business_search&utm_source=RyNyMQd7rvZeoBrbuIrc1w", "review_count": 1, "categories": [{"alias": "coffee", "title": "Coffee & Tea"}], "rating": 5.0, "coordinates": {"latitude": 42.050777, "longitude": -93.62141}, "transactions": [], "location": {"address1": "2925 Grand Ave", "address2": "", "address3": null, "city": "Ames", "zip_code": "50010", "country": "US", "state": "IA", "display_address": ["2925 Grand Ave", "Ames, IA 50010"]}, "phone": "+15153574866", "display_phone": "(515) 357-4866", "distance": 3026.301725801639}, {"id": "TnmipDQFzIjnwwblg7IoZg", "alias": "cactus-2-ames", "name": "Cactus 2", "image_url": "https://s3-media2.fl.yelpcdn.com/bphoto/TLcDIRmUxjiIo6FveVHGIA/o.jpg", "is_closed": false, "url": "https://www.yelp.com/biz/cactus-2-ames?adjust_creative=RyNyMQd7rvZeoBrbuIrc1w&utm_campaign=yelp_api_v3&utm_medium=api_v3_business_search&utm_source=RyNyMQd7rvZeoBrbuIrc1w", "review_count": 11, "categories": [{"alias": "mexican", "title": "Mexican"}], "rating": 2.5, "coordinates": {"latitude": 42.02263832864036, "longitude": -93.6496109}, "transactions": ["delivery", "pickup"], "location": {"address1": "2420 Lincoln Way", "address2": "Ste 103", "address3": null, "city": "Ames", "zip_code": "50014", "country": "US", "state": "IA", "display_address": ["2420 Lincoln Way", "Ste 103", "Ames, IA 50014"]}, "phone": "+15152922576", "display_phone": "(515) 292-2576", "distance": 1772.571894105687}, {"id": "NAuSqVp9gZsJYJk8wHP3DA", "alias": "mcdonalds-ames-3", "name": "McDonald's", "image_url": "https://s3-media2.fl.yelpcdn.com/bphoto/RclQBl0oRnYtcw9_-ycFWg/o.jpg", "is_closed": false, "url": "https://www.yelp.com/biz/mcdonalds-ames-3?adjust_creative=RyNyMQd7rvZeoBrbuIrc1w&utm_campaign=yelp_api_v3&utm_medium=api_v3_business_search&utm_source=RyNyMQd7rvZeoBrbuIrc1w", "review_count": 28, "categories": [{"alias": "burgers", "title": "Burgers"}, {"alias": "hotdogs", "title": "Fast Food"}, {"alias": "coffee", "title": "Coffee & Tea"}], "rating": 1.5, "coordinates": {"latitude": 42.0218656471252, "longitude": -93.610998}, "transactions": ["delivery"], "price": "$", "location": {"address1": "129 S Duff", "address2": "", "address3": "", "city": "Ames", "zip_code": "50010", "country": "US", "state": "IA", "display_address": ["129 S Duff", "Ames, IA 50010"]}, "phone": "+15152321234", "display_phone": "(515) 232-1234", "distance": 1444.1599413473375}, {"id": "BC_KZaXt7xShKAPqrnpWmg", "alias": "fareway-ames", "name": "Fareway", "image_url": "https://s3-media4.fl.yelpcdn.com/bphoto/4ZWlZwVY6h24HVaGXgNBOA/o.jpg", "is_closed": false, "url": "https://www.yelp.com/biz/fareway-ames?adjust_creative=RyNyMQd7rvZeoBrbuIrc1w&utm_campaign=yelp_api_v3&utm_medium=api_v3_business_search&utm_source=RyNyMQd7rvZeoBrbuIrc1w", "review_count": 4, "categories": [{"alias": "meats", "title": "Meat Shops"}, {"alias": "bakeries", "title": "Bakeries"}, {"alias": "grocery", "title": "Grocery"}], "rating": 3.5, "coordinates": {"latitude": 42.02193, "longitude": -93.66991}, "transactions": ["delivery", "pickup"], "location": {"address1": "3720 Lincoln Way", "address2": "", "address3": null, "city": "Ames", "zip_code": "50014", "country": "US", "state": "IA", "display_address": ["3720 Lincoln Way", "Ames, IA 50014"]}, "phone": "+15152924109", "display_phone": "(515) 292-4109", "distance": 3337.6467513456373}, {"id": "JPtfj_UZNVwaI9xQyG0L2A", "alias": "which-wich-ames", "name": "Which Wich", "image_url": "https://s3-media3.fl.yelpcdn.com/bphoto/WfwRmBYsJNSua6sn365s7A/o.jpg", "is_closed": false, "url": "https://www.yelp.com/biz/which-wich-ames?adjust_creative=RyNyMQd7rvZeoBrbuIrc1w&utm_campaign=yelp_api_v3&utm_medium=api_v3_business_search&utm_source=RyNyMQd7rvZeoBrbuIrc1w", "review_count": 3, "categories": [{"alias": "sandwiches", "title": "Sandwiches"}], "rating": 3.5, "coordinates": {"latitude": 42.0225951, "longitude": -93.6545999}, "transactions": ["delivery", "pickup"], "location": {"address1": "2710 Lincoln Way", "address2": "", "address3": null, "city": "Ames", "zip_code": "50014", "country": "US", "state": "IA", "display_address": ["2710 Lincoln Way", "Ames, IA 50014"]}, "phone": "+15152038964", "display_phone": "(515) 203-8964", "distance": 2205.1047353644153}, {"id": "LqH1YE1cH-MyOxE_V8wA7w", "alias": "wahlburgers-hy-vee-ames", "name": "Wahlburgers @ Hy-Vee", "image_url": "https://s3-media2.fl.yelpcdn.com/bphoto/5z1F2enI_AMQFOvurCXiXQ/o.jpg", "is_closed": false, "url": "https://www.yelp.com/biz/wahlburgers-hy-vee-ames?adjust_creative=RyNyMQd7rvZeoBrbuIrc1w&utm_campaign=yelp_api_v3&utm_medium=api_v3_business_search&utm_source=RyNyMQd7rvZeoBrbuIrc1w", "review_count": 3, "categories": [{"alias": "burgers", "title": "Burgers"}, {"alias": "tradamerican", "title": "American (Traditional)"}], "rating": 3.0, "coordinates": {"latitude": 42.020019, "longitude": -93.619542}, "transactions": [], "location": {"address1": "640 Lincoln Way", "address2": "-", "address3": null, "city": "Ames", "zip_code": "50010", "country": "US", "state": "IA", "display_address": ["640 Lincoln Way", "-", "Ames, IA 50010"]}, "phone": "+15152321961", "display_phone": "(515) 232-1961", "distance": 841.2767790814559}, {"id": "V3yWFNp34ry3B_97m3AReQ", "alias": "coldwater-golf-links-ames", "name": "Coldwater Golf Links", "image_url": "https://s3-media2.fl.yelpcdn.com/bphoto/boowD2ybtN87NoTz1L771w/o.jpg", "is_closed": false, "url": "https://www.yelp.com/biz/coldwater-golf-links-ames?adjust_creative=RyNyMQd7rvZeoBrbuIrc1w&utm_campaign=yelp_api_v3&utm_medium=api_v3_business_search&utm_source=RyNyMQd7rvZeoBrbuIrc1w", "review_count": 3, "categories": [{"alias": "golf", "title": "Golf"}], "rating": 3.5, "coordinates": {"latitude": 42.0098639, "longitude": -93.6182106}, "transactions": [], "location": {"address1": "1400 S Grand Ave", "address2": "", "address3": "", "city": "Ames", "zip_code": "50010", "country": "US", "state": "IA", "display_address": ["1400 S Grand Ave", "Ames, IA 50010"]}, "phone": "+15152334664", "display_phone": "(515) 233-4664", "distance": 1780.3023429611405}, {"id": "8WfLM8QDEAwiJu8wmahclA", "alias": "la-bamba-ames", "name": "La Bamba", "image_url": "https://s3-media2.fl.yelpcdn.com/bphoto/n8iTlAoNlCKTVtqNyLwgyQ/o.jpg", "is_closed": false, "url": "https://www.yelp.com/biz/la-bamba-ames?adjust_creative=RyNyMQd7rvZeoBrbuIrc1w&utm_campaign=yelp_api_v3&utm_medium=api_v3_business_search&utm_source=RyNyMQd7rvZeoBrbuIrc1w", "review_count": 2, "categories": [{"alias": "mexican", "title": "Mexican"}, {"alias": "foodtrucks", "title": "Food Trucks"}], "rating": 3.5, "coordinates": {"latitude": 42.02215, "longitude": -93.61165}, "transactions": ["delivery"], "price": "$", "location": {"address1": "118 S Sherman Ave", "address2": "Ste 102", "address3": null, "city": "Ames", "zip_code": "50010", "country": "US", "state": "IA", "display_address": ["118 S Sherman Ave", "Ste 102", "Ames, IA 50010"]}, "phone": "", "display_phone": "", "distance": 1387.3268203734203}, {"id": "4m-MWYEaBAHxqCgGlweZ0g", "alias": "jersey-mikes-subs-ames", "name": "Jersey Mike's Subs", "image_url": "https://s3-media1.fl.yelpcdn.com/bphoto/yEzTUO_6z6pzmRpPL4KUjw/o.jpg", "is_closed": false, "url": "https://www.yelp.com/biz/jersey-mikes-subs-ames?adjust_creative=RyNyMQd7rvZeoBrbuIrc1w&utm_campaign=yelp_api_v3&utm_medium=api_v3_business_search&utm_source=RyNyMQd7rvZeoBrbuIrc1w", "review_count": 13, "categories": [{"alias": "hotdogs", "title": "Fast Food"}, {"alias": "delis", "title": "Delis"}, {"alias": "sandwiches", "title": "Sandwiches"}], "rating": 2.5, "coordinates": {"latitude": 42.0230443, "longitude": -93.6183086}, "transactions": ["delivery", "pickup"], "location": {"address1": "537 Lincoln Way", "address2": "", "address3": "", "city": "Ames", "zip_code": "50010", "country": "US", "state": "IA", "display_address": ["537 Lincoln Way", "Ames, IA 50010"]}, "phone": "+15152321150", "display_phone": "(515) 232-1150", "distance": 784.8966667768959}, {"id": "4jpalmIV95I-qbUTR09tkg", "alias": "caseys-ames-2", "name": "Casey's", "image_url": "https://s3-media2.fl.yelpcdn.com/bphoto/WAYeN6AUFDZw8kvNeVENEw/o.jpg", "is_closed": false, "url": "https://www.yelp.com/biz/caseys-ames-2?adjust_creative=RyNyMQd7rvZeoBrbuIrc1w&utm_campaign=yelp_api_v3&utm_medium=api_v3_business_search&utm_source=RyNyMQd7rvZeoBrbuIrc1w", "review_count": 4, "categories": [{"alias": "pizza", "title": "Pizza"}], "rating": 3.0, "coordinates": {"latitude": 42.022424926371, "longitude": -93.61665121895936}, "transactions": ["delivery"], "location": {"address1": "428 Lincoln Way", "address2": "", "address3": "", "city": "Ames", "zip_code": "50010", "country": "US", "state": "IA", "display_address": ["428 Lincoln Way", "Ames, IA 50010"]}, "phone": "+15152077876", "display_phone": "(515) 207-7876", "distance": 973.4967691356742}, {"id": "7sIZ_8YVrkNuoysOzOS08Q", "alias": "jimmy-johns-ames-6", "name": "Jimmy John's", "image_url": "https://s3-media2.fl.yelpcdn.com/bphoto/N-1i0ogxhejpDI3UD8ZVDw/o.jpg", "is_closed": false, "url": "https://www.yelp.com/biz/jimmy-johns-ames-6?adjust_creative=RyNyMQd7rvZeoBrbuIrc1w&utm_campaign=yelp_api_v3&utm_medium=api_v3_business_search&utm_source=RyNyMQd7rvZeoBrbuIrc1w", "review_count": 7, "categories": [{"alias": "sandwiches", "title": "Sandwiches"}, {"alias": "hotdogs", "title": "Fast Food"}, {"alias": "delis", "title": "Delis"}], "rating": 2.5, "coordinates": {"latitude": 42.015197, "longitude": -93.609653}, "transactions": [], "price": "$", "location": {"address1": "716 S Duff Ave", "address2": null, "address3": "", "city": "Ames", "zip_code": "50010", "country": "US", "state": "IA", "display_address": ["716 S Duff Ave", "Ames, IA 50010"]}, "phone": "+15152324567", "display_phone": "(515) 232-4567", "distance": 1839.9561636439469}, {"id": "oOSJDwNnwkFqTfYGCen9nw", "alias": "pizza-hut-ames-7", "name": "Pizza Hut", "image_url": "https://s3-media2.fl.yelpcdn.com/bphoto/DdmhBFQKORPXse3yV19Qiw/o.jpg", "is_closed": false, "url": "https://www.yelp.com/biz/pizza-hut-ames-7?adjust_creative=RyNyMQd7rvZeoBrbuIrc1w&utm_campaign=yelp_api_v3&utm_medium=api_v3_business_search&utm_source=RyNyMQd7rvZeoBrbuIrc1w", "review_count": 9, "categories": [{"alias": "pizza", "title": "Pizza"}, {"alias": "chicken_wings", "title": "Chicken Wings"}, {"alias": "hotdogs", "title": "Fast Food"}], "rating": 2.5, "coordinates": {"latitude": 42.021478, "longitude": -93.618155}, "transactions": ["delivery", "pickup"], "price": "$", "location": {"address1": "620 Lincoln Way", "address2": "", "address3": "", "city": "Ames", "zip_code": "50010", "country": "US", "state": "IA", "display_address": ["620 Lincoln Way", "Ames, IA 50010"]}, "phone": "+15152331000", "display_phone": "(515) 233-1000", "distance": 881.1168135651188}, {"id": "_Uxs8qB8VeOASZjyoI5LBg", "alias": "bufords-steak-house-and-bbq-ames", "name": "Buford's Steak House & Bbq", "image_url": "", "is_closed": false, "url": "https://www.yelp.com/biz/bufords-steak-house-and-bbq-ames?adjust_creative=RyNyMQd7rvZeoBrbuIrc1w&utm_campaign=yelp_api_v3&utm_medium=api_v3_business_search&utm_source=RyNyMQd7rvZeoBrbuIrc1w", "review_count": 9, "categories": [{"alias": "hotels", "title": "Hotels"}, {"alias": "steak", "title": "Steakhouses"}], "rating": 2.0, "coordinates": {"latitude": 42.0350494384766, "longitude": -93.5790863037109}, "transactions": [], "price": "$$", "location": {"address1": "2601 E 13th St", "address2": "", "address3": "", "city": "Ames", "zip_code": "50010", "country": "US", "state": "IA", "display_address": ["2601 E 13th St", "Ames, IA 50010"]}, "phone": "+15152329260", "display_phone": "(515) 232-9260", "distance": 4281.104648625228}, {"id": "X6TkJqJtZH-JQrIlZdKbig", "alias": "caseys-ames-3", "name": "Casey's", "image_url": "https://s3-media4.fl.yelpcdn.com/bphoto/zU_Huq5rZ6k3LoSPz4-GWA/o.jpg", "is_closed": false, "url": "https://www.yelp.com/biz/caseys-ames-3?adjust_creative=RyNyMQd7rvZeoBrbuIrc1w&utm_campaign=yelp_api_v3&utm_medium=api_v3_business_search&utm_source=RyNyMQd7rvZeoBrbuIrc1w", "review_count": 4, "categories": [{"alias": "pizza", "title": "Pizza"}], "rating": 3.5, "coordinates": {"latitude": 42.056891211427725, "longitude": -93.6441118353732}, "transactions": ["delivery"], "location": {"address1": "3612 Stange Rd", "address2": "", "address3": null, "city": "Ames", "zip_code": "50010", "country": "US", "state": "IA", "display_address": ["3612 Stange Rd", "Ames, IA 50010"]}, "phone": "+15152334055", "display_phone": "(515) 233-4055", "distance": 3881.3795459271846}, {"id": "fDok_xLFjhuI_MBMG82p4Q", "alias": "subway-ames-15", "name": "Subway", "image_url": "https://s3-media1.fl.yelpcdn.com/bphoto/7sB5c2iEJ0cfMy0ZRKoD0Q/o.jpg", "is_closed": false, "url": "https://www.yelp.com/biz/subway-ames-15?adjust_creative=RyNyMQd7rvZeoBrbuIrc1w&utm_campaign=yelp_api_v3&utm_medium=api_v3_business_search&utm_source=RyNyMQd7rvZeoBrbuIrc1w", "review_count": 11, "categories": [{"alias": "sandwiches", "title": "Sandwiches"}, {"alias": "hotdogs", "title": "Fast Food"}], "rating": 1.5, "coordinates": {"latitude": 42.0215761757748, "longitude": -93.6688005}, "transactions": ["delivery", "pickup"], "price": "$", "location": {"address1": "3712 Lincoln Way", "address2": "", "address3": "", "city": "Ames", "zip_code": "50014", "country": "US", "state": "IA", "display_address": ["3712 Lincoln Way", "Ames, IA 50014"]}, "phone": "+15152926430", "display_phone": "(515) 292-6430", "distance": 3362.0461865008238}], "total": 166, "region": {"center": {"longitude": -93.62823486328125, "latitude": 42.024036976644524}}}