{"businesses": [{"id": "uZ_GNnQk9eOPfGDAlKvNlQ", "alias": "caseys-ames-4", "name": "Casey's", "image_url": "https://s3-media3.fl.yelpcdn.com/bphoto/Q0dsPZ_oHY5MRL6RUCpSHA/o.jpg", "is_closed": false, "url": "https://www.yelp.com/biz/caseys-ames-4?adjust_creative=RyNyMQd7rvZeoBrbuIrc1w&utm_campaign=yelp_api_v3&utm_medium=api_v3_business_search&utm_source=RyNyMQd7rvZeoBrbuIrc1w", "review_count": 5, "categories": [{"alias": "pizza", "title": "Pizza"}], "rating": 2.0, "coordinates": {"latitude": 41.99552372578962, "longitude": -93.60945617646902}, "transactions": ["delivery"], "price": "$", "location": {"address1": "3020 S Duff Ave", "address2": null, "address3": null, "city": "Ames", "zip_code": "50010", "country": "US", "state": "IA", "display_address": ["3020 S Duff Ave", "Ames, IA 50010"]}, "phone": "+15152077893", "display_phone": "(515) 207-7893", "distance": 3529.7923684470843}, {"id": "PnhQHJsYpsjWzWZdXB5MFg", "alias": "b-bops-north-ames-ames", "name": "B-Bop's - North Ames", "image_url": "https://s3-media3.fl.yelpcdn.com/bphoto/ZLy1bZzZgQ0AZ3RobTC6Cg/o.jpg", "is_closed": false, "url": "https://www.yelp.com/biz/b-bops-north-ames-ames?adjust_creative=RyNyMQd7rvZeoBrbuIrc1w&utm_campaign=yelp_api_v3&utm_medium=api_v3_business_search&utm_source=RyNyMQd7rvZeoBrbuIrc1w", "review_count": 2, "categories": [{"alias": "burgers", "title": "Burgers"}], "rating": 3.0, "coordinates": {"latitude": 42.0461216373841, "longitude": -93.6205605939689}, "transactions": [], "location": {"address1": "2415 Grand Ave", "address2": "", "address3": null, "city": "Ames", "zip_code": "50010", "country": "US", "state": "IA", "display_address": ["2415 Grand Ave", "Ames, IA 50010"]}, "phone": "+15156205038", "display_phone": "(515) 620-5038", "distance": 2580.599811819422}, {"id": "_TV5XEbSOGC3y1eJSw_vaw", "alias": "subway-ames-12", "name": "Subway", "image_url": "https://s3-media1.fl.yelpcdn.com/bphoto/mqSI-kQuzI52SzIEsf9FOQ/o.jpg", "is_closed": false, "url": "https://www.yelp.com/biz/subway-ames-12?adjust_creative=RyNyMQd7rvZeoBrbuIrc1w&utm_campaign=yelp_api_v3&utm_medium=api_v3_business_search&utm_source=RyNyMQd7rvZeoBrbuIrc1w", "review_count": 7, "categories": [{"alias": "sandwiches", "title": "Sandwiches"}, {"alias": "hotdogs", "title": "Fast Food"}], "rating": 1.5, "coordinates": {"latitude": 42.0222150746907, "longitude": -93.6504393717535}, "transactions": ["pickup", "delivery"], "price": "$", "location": {"address1": "113 Welch Ave", "address2": "", "address3": "", "city": "Ames", "zip_code": "50014", "country": "US", "state": "IA", "display_address": ["113 Welch Ave", "Ames, IA 50014"]}, "phone": "+15152927917", "display_phone": "(515) 292-7917", "distance": 1845.3308406632389}, {"id": "K3QTCySALGZnkWxldLgTfQ", "alias": "jimmy-johns-ames-5", "name": "Jimmy John's", "image_url": "https://s3-media3.fl.yelpcdn.com/bphoto/v8Kx9jSqWWREw_LFlhZtfw/o.jpg", "is_closed": false, "url": "https://www.yelp.com/biz/jimmy-johns-ames-5?adjust_creative=RyNyMQd7rvZeoBrbuIrc1w&utm_campaign=yelp_api_v3&utm_medium=api_v3_business_search&utm_source=RyNyMQd7rvZeoBrbuIrc1w", "review_count": 9, "categories": [{"alias": "sandwiches", "title": "Sandwiches"}, {"alias": "hotdogs", "title": "Fast Food"}, {"alias": "delis", "title": "Delis"}], "rating": 2.5, "coordinates": {"latitude": 42.0351058, "longitude": -93.5764844}, "transactions": [], "price": "$", "location": {"address1": "2721 E 13th St", "address2": "Ste 102", "address3": "", "city": "Ames", "zip_code": "50010", "country": "US", "state": "IA", "display_address": ["2721 E 13th St", "Ste 102", "Ames, IA 50010"]}, "phone": "+15152329344", "display_phone": "(515) 232-9344", "distance": 4448.026574993707}, {"id": "_uZFTQiL8eXzmuOSiFsPJQ", "alias": "jimmy-johns-ames-3", "name": "Jimmy John's", "image_url": "https://s3-media3.fl.yelpcdn.com/bphoto/CWd7kz-hwy9AjscaE4778A/o.jpg", "is_closed": false, "url": "https://www.yelp.com/biz/jimmy-johns-ames-3?adjust_creative=RyNyMQd7rvZeoBrbuIrc1w&utm_campaign=yelp_api_v3&utm_medium=api_v3_business_search&utm_source=RyNyMQd7rvZeoBrbuIrc1w", "review_count": 11, "categories": [{"alias": "sandwiches", "title": "Sandwiches"}, {"alias": "delis", "title": "Delis"}, {"alias": "hotdogs", "title": "Fast Food"}], "rating": 2.0, "coordinates": {"latitude": 42.011072, "longitude": -93.679676}, "transactions": [], "price": "$", "location": {"address1": "4518 Mortensen Rd", "address2": "Ste. 110", "address3": "", "city": "Ames", "zip_code": "50014", "country": "US", "state": "IA", "display_address": ["4518 Mortensen Rd", "Ste. 110", "Ames, IA 50014"]}, "phone": "+15152924444", "display_phone": "(515) 292-4444", "distance": 4478.281188486189}, {"id": "BnVmnj-2rpnuIxwvuuG5Eg", "alias": "jimmy-johns-ames-4", "name": "Jimmy John's", "image_url": "https://s3-media1.fl.yelpcdn.com/bphoto/-N8utDxs_VLGnBJnpmYIZg/o.jpg", "is_closed": false, "url": "https://www.yelp.com/biz/jimmy-johns-ames-4?adjust_creative=RyNyMQd7rvZeoBrbuIrc1w&utm_campaign=yelp_api_v3&utm_medium=api_v3_business_search&utm_source=RyNyMQd7rvZeoBrbuIrc1w", "review_count": 3, "categories": [{"alias": "sandwiches", "title": "Sandwiches"}, {"alias": "delis", "title": "Delis"}, {"alias": "hotdogs", "title": "Fast Food"}], "rating": 3.5, "coordinates": {"latitude": 42.049308, "longitude": -93.622729}, "transactions": [], "price": "$", "location": {"address1": "2801 Grand Ave N", "address2": null, "address3": null, "city": "Ames", "zip_code": "50010", "country": "US", "state": "IA", "display_address": ["2801 Grand Ave N", "Ames, IA 50010"]}, "phone": "+15152327827", "display_phone": "(515) 232-7827", "distance": 2846.5586305138195}, {"id": "WYsUq6iNjOt857DHB46Amw", "alias": "subway-ames-13", "name": "Subway", "image_url": "https://s3-media3.fl.yelpcdn.com/bphoto/XDnlZkyvqJbaSk8bg3k5sA/o.jpg", "is_closed": false, "url": "https://www.yelp.com/biz/subway-ames-13?adjust_creative=RyNyMQd7rvZeoBrbuIrc1w&utm_campaign=yelp_api_v3&utm_medium=api_v3_business_search&utm_source=RyNyMQd7rvZeoBrbuIrc1w", "review_count": 4, "categories": [{"alias": "hotdogs", "title": "Fast Food"}, {"alias": "sandwiches", "title": "Sandwiches"}], "rating": 2.5, "coordinates": {"latitude": 42.008828682536, "longitude": -93.5859809075976}, "transactions": ["pickup", "delivery"], "price": "$", "location": {"address1": "2108 Isaac Newton Dr", "address2": "", "address3": null, "city": "Ames", "zip_code": "50010", "country": "US", "state": "IA", "display_address": ["2108 Isaac Newton Dr", "Ames, IA 50010"]}, "phone": "+15155985100", "display_phone": "(515) 598-5100", "distance": 3878.760480755641}, {"id": "_w-h51l0eNymYP5PMv2Wmg", "alias": "arbys-ames-3", "name": "Arby's", "image_url": "https://s3-media3.fl.yelpcdn.com/bphoto/5z5aEMwhFDqwLu2Varmazw/o.jpg", "is_closed": false, "url": "https://www.yelp.com/biz/arbys-ames-3?adjust_creative=RyNyMQd7rvZeoBrbuIrc1w&utm_campaign=yelp_api_v3&utm_medium=api_v3_business_search&utm_source=RyNyMQd7rvZeoBrbuIrc1w", "review_count": 2, "categories": [{"alias": "hotdogs", "title": "Fast Food"}, {"alias": "sandwiches", "title": "Sandwiches"}], "rating": 2.5, "coordinates": {"latitude": 42.0338490071382, "longitude": -93.5770563542799}, "transactions": ["pickup", "delivery"], "price": "$", "location": {"address1": "2720 E 13th St", "address2": "", "address3": "", "city": "Ames", "zip_code": "50010", "country": "US", "state": "IA", "display_address": ["2720 E 13th St", "Ames, IA 50010"]}, "phone": "+15152331670", "display_phone": "(515) 233-1670", "distance": 4365.684710925133}, {"id": "T1OPBq4I7F-wlTISCcLNPg", "alias": "the-angry-irishmen-ames-3", "name": "The Angry Irishmen", "image_url": "https://s3-media2.fl.yelpcdn.com/bphoto/klxtli0rNpRStebVxc13UA/o.jpg", "is_closed": false, "url": "https://www.yelp.com/biz/the-angry-irishmen-ames-3?adjust_creative=RyNyMQd7rvZeoBrbuIrc1w&utm_campaign=yelp_api_v3&utm_medium=api_v3_business_search&utm_source=RyNyMQd7rvZeoBrbuIrc1w", "review_count": 6, "categories": [{"alias": "bars", "title": "Bars"}], "rating": 3.0, "coordinates": {"latitude": 42.025390625, "longitude": -93.6113586425781}, "transactions": ["delivery"], "location": {"address1": "119 Main St", "address2": "", "address3": "", "city": "Ames", "zip_code": "50010", "country": "US", "state": "IA", "display_address": ["119 Main St", "Ames, IA 50010"]}, "phone": "+15152333910", "display_phone": "(515) 233-3910", "distance": 1405.7623588301674}, {"id": "Pg9G-GY3zJT-NbU-ERH1CA", "alias": "dairy-queen-store-ames-3", "name": "Dairy Queen Store", "image_url": "https://s3-media3.fl.yelpcdn.com/bphoto/9G3H1HuoWhj4-btVXR0cEQ/o.jpg", "is_closed": false, "url": "https://www.yelp.com/biz/dairy-queen-store-ames-3?adjust_creative=RyNyMQd7rvZeoBrbuIrc1w&utm_campaign=yelp_api_v3&utm_medium=api_v3_business_search&utm_source=RyNyMQd7rvZeoBrbuIrc1w", "review_count": 4, "categories": [{"alias": "icecream", "title": "Ice Cream & Frozen Yogurt"}, {"alias": "hotdogs", "title": "Fast Food"}, {"alias": "burgers", "title": "Burgers"}], "rating": 2.0, "coordinates": {"latitude": 42.00896, "longitude": -93.585984}, "transactions": ["pickup", "delivery"], "price": "$", "location": {"address1": "2108 Isaac Newton Dr", "address2": "", "address3": null, "city": "Ames", "zip_code": "50010", "country": "US", "state": "IA", "display_address": ["2108 Isaac Newton Dr", "Ames, IA 50010"]}, "phone": "+15152335550", "display_phone": "(515) 233-5550", "distance": 3855.360046803861}, {"id": "Sh8Xo_8uC0ds8SCsH7LHdw", "alias": "time-to-roll-ames", "name": "Time To Roll", "image_url": "", "is_closed": false, "url": "https://www.yelp.com/biz/time-to-roll-ames?adjust_creative=RyNyMQd7rvZeoBrbuIrc1w&utm_campaign=yelp_api_v3&utm_medium=api_v3_business_search&utm_source=RyNyMQd7rvZeoBrbuIrc1w", "review_count": 2, "categories": [{"alias": "tex-mex", "title": "Tex-Mex"}], "rating": 2.0, "coordinates": {"latitude": 42.04934467248005, "longitude": -93.62272761762142}, "transactions": ["pickup", "delivery"], "location": {"address1": "2801 Grand Ave", "address2": "", "address3": null, "city": "Ames", "zip_code": "50010", "country": "US", "state": "IA", "display_address": ["2801 Grand Ave", "Ames, IA 50010"]}, "phone": "+15156867377", "display_phone": "(515) 686-7377", "distance": 2850.6023242426}, {"id": "0ynXST1SO5rzUw0jv-wg-g", "alias": "subway-ames-11", "name": "Subway", "image_url": "https://s3-media2.fl.yelpcdn.com/bphoto/H6h9Nxo53g2xM2KticZsIA/o.jpg", "is_closed": false, "url": "https://www.yelp.com/biz/subway-ames-11?adjust_creative=RyNyMQd7rvZeoBrbuIrc1w&utm_campaign=yelp_api_v3&utm_medium=api_v3_business_search&utm_source=RyNyMQd7rvZeoBrbuIrc1w", "review_count": 6, "categories": [{"alias": "sandwiches", "title": "Sandwiches"}], "rating": 2.0, "coordinates": {"latitude": 42.0108365, "longitude": -93.6094865}, "transactions": ["pickup", "delivery"], "price": "$", "location": {"address1": "1310 S Duff Ave", "address2": "Ste 105", "address3": "", "city": "Ames", "zip_code": "50010", "country": "US", "state": "IA", "display_address": ["1310 S Duff Ave", "Ste 105", "Ames, IA 50010"]}, "phone": "+15152324515", "display_phone": "(515) 232-4515", "distance": 2133.861853560836}, {"id": "1s4EOzxnzwrWly8BUfo8dw", "alias": "starbucks-ames-7", "name": "Starbucks", "image_url": "https://s3-media3.fl.yelpcdn.com/bphoto/BE86QcMK0kPcpjU10yLCug/o.jpg", "is_closed": false, "url": "https://www.yelp.com/biz/starbucks-ames-7?adjust_creative=RyNyMQd7rvZeoBrbuIrc1w&utm_campaign=yelp_api_v3&utm_medium=api_v3_business_search&utm_source=RyNyMQd7rvZeoBrbuIrc1w", "review_count": 1, "categories": [{"alias": "coffee", "title": "Coffee & Tea"}], "rating": 1.0, "coordinates": {"latitude": 42.01943327, "longitude": -93.60711605}, "transactions": ["delivery"], "location": {"address1": "320 S Duff Ave", "address2": null, "address3": "Target", "city": "Ames", "zip_code": "50010", "country": "US", "state": "IA", "display_address": ["320 S Duff Ave", "Target", "Ames, IA 50010"]}, "phone": "+15156639500", "display_phone": "(515) 663-9500", "distance": 1818.0879096719186}, {"id": "3MWJNtVqj45e7yPC4ksQKQ", "alias": "papa-johns-pizza-ames", "name": "Papa Johns Pizza", "image_url": "https://s3-media4.fl.yelpcdn.com/bphoto/h0oW2XJqDMAgMIzRCfLVug/o.jpg", "is_closed": false, "url": "https://www.yelp.com/biz/papa-johns-pizza-ames?adjust_creative=RyNyMQd7rvZeoBrbuIrc1w&utm_campaign=yelp_api_v3&utm_medium=api_v3_business_search&utm_source=RyNyMQd7rvZeoBrbuIrc1w", "review_count": 5, "categories": [{"alias": "pizza", "title": "Pizza"}, {"alias": "chicken_wings", "title": "Chicken Wings"}, {"alias": "hotdogs", "title": "Fast Food"}], "rating": 2.0, "coordinates": {"latitude": 42.04614, "longitude": -93.62105}, "transactions": ["pickup", "delivery"], "price": "$", "location": {"address1": "707 24th St", "address2": "", "address3": "", "city": "Ames", "zip_code": "50010", "country": "US", "state": "IA", "display_address": ["707 24th St", "Ames, IA 50010"]}, "phone": "+15159563737", "display_phone": "(515) 956-3737", "distance": 2529.8716120244944}, {"id": "DcooIrDWIkWGc0MkkyHNgA", "alias": "the-vault-gilbert", "name": "The Vault", "image_url": "https://s3-media1.fl.yelpcdn.com/bphoto/mkLPP2VxhP60k8h6f_x5QQ/o.jpg", "is_closed": false, "url": "https://www.yelp.com/biz/the-vault-gilbert?adjust_creative=RyNyMQd7rvZeoBrbuIrc1w&utm_campaign=yelp_api_v3&utm_medium=api_v3_business_search&utm_source=RyNyMQd7rvZeoBrbuIrc1w", "review_count": 3, "categories": [{"alias": "salad", "title": "Salad"}, {"alias": "tacos", "title": "Tacos"}, {"alias": "sandwiches", "title": "Sandwiches"}], "rating": 4.5, "coordinates": {"latitude": 42.1077299, "longitude": -93.64983}, "transactions": [], "location": {"address1": "125 Main St", "address2": null, "address3": null, "city": "Gilbert", "zip_code": "50105", "country": "US", "state": "IA", "display_address": ["125 Main St", "Gilbert, IA 50105"]}, "phone": "+15152321686", "display_phone": "(515) 232-1686", "distance": 9473.251226104974}, {"id": "KtWaq1LZ2swhMLX0DRVz6g", "alias": "subway-ames-14", "name": "Subway", "image_url": "https://s3-media4.fl.yelpcdn.com/bphoto/A35P_y-UZXhUZKB0My0Ddg/o.jpg", "is_closed": false, "url": "https://www.yelp.com/biz/subway-ames-14?adjust_creative=RyNyMQd7rvZeoBrbuIrc1w&utm_campaign=yelp_api_v3&utm_medium=api_v3_business_search&utm_source=RyNyMQd7rvZeoBrbuIrc1w", "review_count": 2, "categories": [{"alias": "sandwiches", "title": "Sandwiches"}, {"alias": "hotdogs", "title": "Fast Food"}], "rating": 1.5, "coordinates": {"latitude": 42.05448453601333, "longitude": -93.621034347444}, "transactions": ["pickup", "delivery"], "price": "$", "location": {"address1": "3218 Orion", "address2": "Ste 3", "address3": "", "city": "Ames", "zip_code": "50010", "country": "US", "state": "IA", "display_address": ["3218 Orion", "Ste 3", "Ames, IA 50010"]}, "phone": "+15152324527", "display_phone": "(515) 232-4527", "distance": 3437.4340981720384}], "total": 166, "region": {"center": {"longitude": -93.62823486328125, "latitude": 42.024036976644524}}}