{"businesses": [{"id": "5UQIWWFOGF_3ZC5XLpuUuQ", "alias": "provisions-lot-f-ames-2", "name": "Provisions Lot F", "image_url": "https://s3-media1.fl.yelpcdn.com/bphoto/JHgm0Fz462NAN9lxi7Mpfg/o.jpg", "is_closed": false, "url": "https://www.yelp.com/biz/provisions-lot-f-ames-2?adjust_creative=RyNyMQd7rvZeoBrbuIrc1w&utm_campaign=yelp_api_v3&utm_medium=api_v3_business_search&utm_source=RyNyMQd7rvZeoBrbuIrc1w", "review_count": 257, "categories": [{"alias": "newamerican", "title": "American (New)"}, {"alias": "breakfast_brunch", "title": "Breakfast & Brunch"}, {"alias": "bars", "title": "Bars"}], "rating": 4.5, "coordinates": {"latitude": 42.00077713820821, "longitude": -93.63569581557114}, "transactions": ["delivery"], "price": "$$", "location": {"address1": "2400 N Loop Dr", "address2": "", "address3": null, "city": "Ames", "zip_code": "50010", "country": "US", "state": "IA", "display_address": ["2400 N Loop Dr", "Ames, IA 50010"]}, "phone": "+15155981783", "display_phone": "(515) 598-1783", "distance": 2658.8124444262703}, {"id": "yDf8_64Lp05EXglmcl2Slg", "alias": "the-cafe-ames-9", "name": "The Cafe", "image_url": "https://s3-media1.fl.yelpcdn.com/bphoto/fh2WLCgZOww0XjZcLobiNA/o.jpg", "is_closed": false, "url": "https://www.yelp.com/biz/the-cafe-ames-9?adjust_creative=RyNyMQd7rvZeoBrbuIrc1w&utm_campaign=yelp_api_v3&utm_medium=api_v3_business_search&utm_source=RyNyMQd7rvZeoBrbuIrc1w", "review_count": 486, "categories": [{"alias": "bakeries", "title": "Bakeries"}, {"alias": "breakfast_brunch", "title": "Breakfast & Brunch"}, {"alias": "coffee", "title": "Coffee & Tea"}], "rating": 4.5, "coordinates": {"latitude": 42.04872, "longitude": -93.64367}, "transactions": ["delivery"], "price": "$$", "location": {"address1": "2616 Northridge Pkwy", "address2": "", "address3": "", "city": "Ames", "zip_code": "50010", "country": "US", "state": "IA", "display_address": ["2616 Northridge Pkwy", "Ames, IA 50010"]}, "phone": "+15152920100", "display_phone": "(515) 292-0100", "distance": 3029.9338890245704}, {"id": "Xsom34bRe6gAsgFHXVS77A", "alias": "the-filling-station-ames-3", "name": "The Filling Station", "image_url": "https://s3-media3.fl.yelpcdn.com/bphoto/kFCTdR23XlegBIvnU2NGGA/o.jpg", "is_closed": false, "url": "https://www.yelp.com/biz/the-filling-station-ames-3?adjust_creative=RyNyMQd7rvZeoBrbuIrc1w&utm_campaign=yelp_api_v3&utm_medium=api_v3_business_search&utm_source=RyNyMQd7rvZeoBrbuIrc1w", "review_count": 41, "categories": [{"alias": "breakfast_brunch", "title": "Breakfast & Brunch"}, {"alias": "newamerican", "title": "American (New)"}, {"alias": "bbq", "title": "Barbeque"}], "rating": 4.5, "coordinates": {"latitude": 42.00072, "longitude": -93.63884}, "transactions": ["delivery"], "location": {"address1": "2400 S University Blvd", "address2": "", "address3": null, "city": "Ames", "zip_code": "50010", "country": "US", "state": "IA", "display_address": ["2400 S University Blvd", "Ames, IA 50010"]}, "phone": "+15152926769", "display_phone": "(515) 292-6769", "distance": 2728.2805230157114}, {"id": "-4BrqUXChf2GpNllVfHTaQ", "alias": "bar-la-tosca-ames", "name": "Bar La Tosca", "image_url": "https://s3-media4.fl.yelpcdn.com/bphoto/f9dDXNNmqDrHkv8QnZ-aug/o.jpg", "is_closed": false, "url": "https://www.yelp.com/biz/bar-la-tosca-ames?adjust_creative=RyNyMQd7rvZeoBrbuIrc1w&utm_campaign=yelp_api_v3&utm_medium=api_v3_business_search&utm_source=RyNyMQd7rvZeoBrbuIrc1w", "review_count": 60, "categories": [{"alias": "italian", "title": "Italian"}], "rating": 4.0, "coordinates": {"latitude": 42.0249912978246, "longitude": -93.6156766707959}, "transactions": ["delivery"], "price": "$$", "location": {"address1": "303 Welch Ave", "address2": "", "address3": "", "city": "Ames", "zip_code": "50014", "country": "US", "state": "IA", "display_address": ["303 Welch Ave", "Ames, IA 50014"]}, "phone": "+15152925258", "display_phone": "(515) 292-5258", "distance": 1042.7453372325815}, {"id": "BzbDax_9tXt-SZYvfWEz8A", "alias": "downtown-deli-ames", "name": "Downtown Deli", "image_url": "https://s3-media1.fl.yelpcdn.com/bphoto/iVdtQ02AfUHZW9c48f1w0g/o.jpg", "is_closed": false, "url": "https://www.yelp.com/biz/downtown-deli-ames?adjust_creative=RyNyMQd7rvZeoBrbuIrc1w&utm_campaign=yelp_api_v3&utm_medium=api_v3_business_search&utm_source=RyNyMQd7rvZeoBrbuIrc1w", "review_count": 63, "categories": [{"alias": "delis", "title": "Delis"}], "rating": 4.5, "coordinates": {"latitude": 42.02479, "longitude": -93.61492}, "transactions": ["delivery"], "price": "$", "location": {"address1": "328 Main St", "address2": "", "address3": "", "city": "Ames", "zip_code": "50010", "country": "US", "state": "IA", "display_address": ["328 Main St", "Ames, IA 50010"]}, "phone": "+15152323626", "display_phone": "(515) 232-3626", "distance": 1102.11894966453}, {"id": "JWb7NIc1PAkNUBZKXo0O8g", "alias": "lockwood-cafe-ames", "name": "Lockwood Cafe", "image_url": "https://s3-media2.fl.yelpcdn.com/bphoto/7xwAuVQ9opK_m81Pp56Lsw/o.jpg", "is_closed": false, "url": "https://www.yelp.com/biz/lockwood-cafe-ames?adjust_creative=RyNyMQd7rvZeoBrbuIrc1w&utm_campaign=yelp_api_v3&utm_medium=api_v3_business_search&utm_source=RyNyMQd7rvZeoBrbuIrc1w", "review_count": 39, "categories": [{"alias": "cafes", "title": "Cafes"}], "rating": 4.5, "coordinates": {"latitude": 42.03712, "longitude": -93.68076}, "transactions": ["delivery"], "location": {"address1": "4625 Reliable St", "address2": "", "address3": null, "city": "Ames", "zip_code": "50014", "country": "US", "state": "IA", "display_address": ["4625 Reliable St", "Ames, IA 50014"]}, "phone": "", "display_phone": "", "distance": 4627.224590241869}, {"id": "wyVx8QFn9K7zTc8SEVD45Q", "alias": "morning-bell-coffee-roasters-ames", "name": "Morning Bell Coffee Roasters", "image_url": "https://s3-media2.fl.yelpcdn.com/bphoto/E9jzv1A8GIcLQxgAN0NICg/o.jpg", "is_closed": false, "url": "https://www.yelp.com/biz/morning-bell-coffee-roasters-ames?adjust_creative=RyNyMQd7rvZeoBrbuIrc1w&utm_campaign=yelp_api_v3&utm_medium=api_v3_business_search&utm_source=RyNyMQd7rvZeoBrbuIrc1w", "review_count": 49, "categories": [{"alias": "coffeeroasteries", "title": "Coffee Roasteries"}, {"alias": "coffee", "title": "Coffee & Tea"}], "rating": 5.0, "coordinates": {"latitude": 42.02539, "longitude": -93.61109}, "transactions": [], "price": "$", "location": {"address1": "111 Main St", "address2": "Ste 103", "address3": null, "city": "Ames", "zip_code": "50010", "country": "US", "state": "IA", "display_address": ["111 Main St", "Ste 103", "Ames, IA 50010"]}, "phone": "+15152576637", "display_phone": "(515) 257-6637", "distance": 1426.0335410842154}, {"id": "MH_lILgWahripGLCcUEehg", "alias": "tropical-smoothie-cafe-ames", "name": "Tropical Smoothie Cafe", "image_url": "https://s3-media1.fl.yelpcdn.com/bphoto/IRMcPz5TaZrrPGJreZaUhQ/o.jpg", "is_closed": false, "url": "https://www.yelp.com/biz/tropical-smoothie-cafe-ames?adjust_creative=RyNyMQd7rvZeoBrbuIrc1w&utm_campaign=yelp_api_v3&utm_medium=api_v3_business_search&utm_source=RyNyMQd7rvZeoBrbuIrc1w", "review_count": 33, "categories": [{"alias": "sandwiches", "title": "Sandwiches"}, {"alias": "juicebars", "title": "Juice Bars & Smoothies"}], "rating": 4.5, "coordinates": {"latitude": 42.0232496, "longitude": -93.6177327}, "transactions": ["delivery", "pickup"], "price": "$", "location": {"address1": "517 Lincoln Way", "address2": "", "address3": "", "city": "Ames", "zip_code": "50010", "country": "US", "state": "IA", "display_address": ["517 Lincoln Way", "Ames, IA 50010"]}, "phone": "+15152335460", "display_phone": "(515) 233-5460", "distance": 871.9184243657571}, {"id": "3Zc1vWhVrDw8xILrH8xjpQ", "alias": "reiman-gardens-ames", "name": "Reiman Gardens", "image_url": "https://s3-media1.fl.yelpcdn.com/bphoto/unrriRC-tl69s2cXXYP7PA/o.jpg", "is_closed": false, "url": "https://www.yelp.com/biz/reiman-gardens-ames?adjust_creative=RyNyMQd7rvZeoBrbuIrc1w&utm_campaign=yelp_api_v3&utm_medium=api_v3_business_search&utm_source=RyNyMQd7rvZeoBrbuIrc1w", "review_count": 45, "categories": [{"alias": "gardens", "title": "Botanical Gardens"}], "rating": 5.0, "coordinates": {"latitude": 42.01051, "longitude": -93.638584}, "transactions": [], "location": {"address1": "1407 University Blvd", "address2": "", "address3": "", "city": "Ames", "zip_code": "50011", "country": "US", "state": "IA", "display_address": ["1407 University Blvd", "Ames, IA 50011"]}, "phone": "+15152942710", "display_phone": "(515) 294-2710", "distance": 1730.131963905821}, {"id": "FO3OBN4_HsjU3zia2MQnhQ", "alias": "wheatsfield-cooperative-ames", "name": "Wheatsfield Cooperative", "image_url": "https://s3-media3.fl.yelpcdn.com/bphoto/HFnvJj2LbUky24w4R4pq4w/o.jpg", "is_closed": false, "url": "https://www.yelp.com/biz/wheatsfield-cooperative-ames?adjust_creative=RyNyMQd7rvZeoBrbuIrc1w&utm_campaign=yelp_api_v3&utm_medium=api_v3_business_search&utm_source=RyNyMQd7rvZeoBrbuIrc1w", "review_count": 49, "categories": [{"alias": "grocery", "title": "Grocery"}, {"alias": "delis", "title": "Delis"}, {"alias": "coffee", "title": "Coffee & Tea"}], "rating": 4.0, "coordinates": {"latitude": 42.02516, "longitude": -93.6216}, "transactions": [], "price": "$$", "location": {"address1": "413 Northwestern Ave", "address2": "", "address3": "", "city": "Ames", "zip_code": "50010", "country": "US", "state": "IA", "display_address": ["413 Northwestern Ave", "Ames, IA 50010"]}, "phone": "+15152324094", "display_phone": "(515) 232-4094", "distance": 570.8455920031859}, {"id": "d_BESJ4CsHt27lUGc4JA_w", "alias": "grove-cafe-ames", "name": "Grove Cafe", "image_url": "https://s3-media4.fl.yelpcdn.com/bphoto/dNBmFRABF5FBJTl-CAHmXg/o.jpg", "is_closed": false, "url": "https://www.yelp.com/biz/grove-cafe-ames?adjust_creative=RyNyMQd7rvZeoBrbuIrc1w&utm_campaign=yelp_api_v3&utm_medium=api_v3_business_search&utm_source=RyNyMQd7rvZeoBrbuIrc1w", "review_count": 108, "categories": [{"alias": "breakfast_brunch", "title": "Breakfast & Brunch"}], "rating": 4.0, "coordinates": {"latitude": 42.024965, "longitude": -93.61141}, "transactions": ["delivery", "pickup"], "price": "$", "location": {"address1": "124 Main St", "address2": "", "address3": "", "city": "Ames", "zip_code": "50010", "country": "US", "state": "IA", "display_address": ["124 Main St", "Ames, IA 50010"]}, "phone": "+15152329784", "display_phone": "(515) 232-9784", "distance": 1393.5934191917652}, {"id": "ZYB7Kd8I-AUglsITb1v-bg", "alias": "cafe-diem-ames", "name": "Cafe Diem", "image_url": "https://s3-media2.fl.yelpcdn.com/bphoto/1nLv3ilzp2t-MOqQgDk3eg/o.jpg", "is_closed": false, "url": "https://www.yelp.com/biz/cafe-diem-ames?adjust_creative=RyNyMQd7rvZeoBrbuIrc1w&utm_campaign=yelp_api_v3&utm_medium=api_v3_business_search&utm_source=RyNyMQd7rvZeoBrbuIrc1w", "review_count": 88, "categories": [{"alias": "coffee", "title": "Coffee & Tea"}, {"alias": "coffeeroasteries", "title": "Coffee Roasteries"}], "rating": 4.5, "coordinates": {"latitude": 42.02536, "longitude": -93.61336}, "transactions": [], "price": "$", "location": {"address1": "229 Main St", "address2": "", "address3": "", "city": "Ames", "zip_code": "50010", "country": "US", "state": "IA", "display_address": ["229 Main St", "Ames, IA 50010"]}, "phone": "+15159563556", "display_phone": "(515) 956-3556", "distance": 1237.4388942324238}, {"id": "9xJS12_7dUgH3EA8Lyv1Kw", "alias": "dutch-oven-bakery-ames", "name": "Dutch Oven Bakery", "image_url": "https://s3-media2.fl.yelpcdn.com/bphoto/-DoySSfJFQs6HHAxx6-A4Q/o.jpg", "is_closed": false, "url": "https://www.yelp.com/biz/dutch-oven-bakery-ames?adjust_creative=RyNyMQd7rvZeoBrbuIrc1w&utm_campaign=yelp_api_v3&utm_medium=api_v3_business_search&utm_source=RyNyMQd7rvZeoBrbuIrc1w", "review_count": 29, "categories": [{"alias": "bakeries", "title": "Bakeries"}], "rating": 4.5, "coordinates": {"latitude": 42.0238914, "longitude": -93.6105652}, "transactions": ["delivery", "pickup"], "price": "$", "location": {"address1": "219 Duff Ave", "address2": "", "address3": "", "city": "Ames", "zip_code": "50010", "country": "US", "state": "IA", "display_address": ["219 Duff Ave", "Ames, IA 50010"]}, "phone": "+15152329244", "display_phone": "(515) 232-9244", "distance": 1417.3751351254496}, {"id": "yt5VAis_QS47hB4vf3zSSQ", "alias": "great-harvest-bakery-and-cafe-ames-2", "name": "Great Harvest Bakery & Cafe", "image_url": "https://s3-media1.fl.yelpcdn.com/bphoto/ajozMhwoU_rUjEFEbrA8_Q/o.jpg", "is_closed": false, "url": "https://www.yelp.com/biz/great-harvest-bakery-and-cafe-ames-2?adjust_creative=RyNyMQd7rvZeoBrbuIrc1w&utm_campaign=yelp_api_v3&utm_medium=api_v3_business_search&utm_source=RyNyMQd7rvZeoBrbuIrc1w", "review_count": 21, "categories": [{"alias": "cafes", "title": "Cafes"}, {"alias": "bakeries", "title": "Bakeries"}, {"alias": "sandwiches", "title": "Sandwiches"}], "rating": 4.0, "coordinates": {"latitude": 42.0260218856166, "longitude": -93.6153210155713}, "transactions": ["delivery", "pickup"], "price": "$$", "location": {"address1": "502 Burnett Ave", "address2": "", "address3": null, "city": "Ames", "zip_code": "50010", "country": "US", "state": "IA", "display_address": ["502 Burnett Ave", "Ames, IA 50010"]}, "phone": "+15155982624", "display_phone": "(515) 598-2624", "distance": 1107.3992334753646}, {"id": "09R-n57GFhyRBplVDy0_TA", "alias": "flip-n-jacks-ames", "name": "Flip\u2019N Jacks", "image_url": "https://s3-media2.fl.yelpcdn.com/bphoto/h6vm9IXNEnN8KSpsHaAQAA/o.jpg", "is_closed": false, "url": "https://www.yelp.com/biz/flip-n-jacks-ames?adjust_creative=RyNyMQd7rvZeoBrbuIrc1w&utm_campaign=yelp_api_v3&utm_medium=api_v3_business_search&utm_source=RyNyMQd7rvZeoBrbuIrc1w", "review_count": 65, "categories": [{"alias": "pancakes", "title": "Pancakes"}], "rating": 4.5, "coordinates": {"latitude": 42.00876970080405, "longitude": -93.5806238252177}, "transactions": [], "price": "$$", "location": {"address1": "1520 S Dayton Pl", "address2": "", "address3": null, "city": "Ames", "zip_code": "50010", "country": "US", "state": "IA", "display_address": ["1520 S Dayton Pl", "Ames, IA 50010"]}, "phone": "", "display_phone": "", "distance": 4283.9922233689185}, {"id": "fi-Ob62rEx-HqhdE11BK6A", "alias": "chocolaterie-stam-ames-ames", "name": "Chocolaterie Stam - Ames", "image_url": "https://s3-media1.fl.yelpcdn.com/bphoto/A6FxNu808ji0HqHTDR24IQ/o.jpg", "is_closed": false, "url": "https://www.yelp.com/biz/chocolaterie-stam-ames-ames?adjust_creative=RyNyMQd7rvZeoBrbuIrc1w&utm_campaign=yelp_api_v3&utm_medium=api_v3_business_search&utm_source=RyNyMQd7rvZeoBrbuIrc1w", "review_count": 51, "categories": [{"alias": "chocolate", "title": "Chocolatiers & Shops"}, {"alias": "coffee", "title": "Coffee & Tea"}, {"alias": "gelato", "title": "Gelato"}], "rating": 4.5, "coordinates": {"latitude": 42.0250246567829, "longitude": -93.6132282922975}, "transactions": ["delivery"], "price": "$$", "location": {"address1": "230 Main St", "address2": "", "address3": "", "city": "Ames", "zip_code": "50010", "country": "US", "state": "IA", "display_address": ["230 Main St", "Ames, IA 50010"]}, "phone": "+15152320656", "display_phone": "(515) 232-0656", "distance": 1244.428147252302}, {"id": "Hp77nFgSN3H2VIekdLgs7w", "alias": "little-woods-herbs-and-teas-ames", "name": "Little Woods Herbs & Teas", "image_url": "https://s3-media2.fl.yelpcdn.com/bphoto/DnDA156MvcAvpclCmw6uiQ/o.jpg", "is_closed": false, "url": "https://www.yelp.com/biz/little-woods-herbs-and-teas-ames?adjust_creative=RyNyMQd7rvZeoBrbuIrc1w&utm_campaign=yelp_api_v3&utm_medium=api_v3_business_search&utm_source=RyNyMQd7rvZeoBrbuIrc1w", "review_count": 13, "categories": [{"alias": "herbsandspices", "title": "Herbs & Spices"}, {"alias": "tea", "title": "Tea Rooms"}], "rating": 5.0, "coordinates": {"latitude": 42.0251526277564, "longitude": -93.6115501407358}, "transactions": [], "price": "$$", "location": {"address1": "136 Main St", "address2": "", "address3": null, "city": "Ames", "zip_code": "50010", "country": "US", "state": "IA", "display_address": ["136 Main St", "Ames, IA 50010"]}, "phone": "+15152333838", "display_phone": "(515) 233-3838", "distance": 1383.7617047943916}, {"id": "08_MOV-WIfjEb-vQZnNayA", "alias": "abelardos-mexican-fresh-ames", "name": "Abelardo's Mexican Fresh", "image_url": "https://s3-media3.fl.yelpcdn.com/bphoto/J0GOLcYokWQq3JUC98Mwdw/o.jpg", "is_closed": false, "url": "https://www.yelp.com/biz/abelardos-mexican-fresh-ames?adjust_creative=RyNyMQd7rvZeoBrbuIrc1w&utm_campaign=yelp_api_v3&utm_medium=api_v3_business_search&utm_source=RyNyMQd7rvZeoBrbuIrc1w", "review_count": 42, "categories": [{"alias": "mexican", "title": "Mexican"}], "rating": 3.5, "coordinates": {"latitude": 42.02323916441793, "longitude": -93.61850908598092}, "transactions": ["delivery", "pickup"], "price": "$", "location": {"address1": "5300 E Lincoln Way", "address2": "", "address3": "", "city": "Ames", "zip_code": "50010", "country": "US", "state": "IA", "display_address": ["5300 E Lincoln Way", "Ames, IA 50010"]}, "phone": "+15152321539", "display_phone": "(515) 232-1539", "distance": 808.2629056061555}, {"id": "qy2dhZlCTy1crEyuJl_SFg", "alias": "humble-donuts-ames", "name": "Humble Donuts", "image_url": "https://s3-media1.fl.yelpcdn.com/bphoto/HksLB2LjTBYz9sONyhxy6w/o.jpg", "is_closed": false, "url": "https://www.yelp.com/biz/humble-donuts-ames?adjust_creative=RyNyMQd7rvZeoBrbuIrc1w&utm_campaign=yelp_api_v3&utm_medium=api_v3_business_search&utm_source=RyNyMQd7rvZeoBrbuIrc1w", "review_count": 15, "categories": [{"alias": "donuts", "title": "Donuts"}, {"alias": "coffee", "title": "Coffee & Tea"}], "rating": 4.5, "coordinates": {"latitude": 42.023323, "longitude": -93.619762}, "transactions": ["pickup", "delivery"], "price": "$", "location": {"address1": "637 Lincoln Way", "address2": "", "address3": null, "city": "Ames", "zip_code": "50010", "country": "US", "state": "IA", "display_address": ["637 Lincoln Way", "Ames, IA 50010"]}, "phone": "+15152335015", "display_phone": "(515) 233-5015", "distance": 704.3730314124874}, {"id": "uRKuCqTanuxWZFn-24jfIQ", "alias": "stomping-grounds-ames", "name": "Stomping Grounds", "image_url": "https://s3-media2.fl.yelpcdn.com/bphoto/rgtVQj-pCbFk-l-IdhYWsQ/o.jpg", "is_closed": false, "url": "https://www.yelp.com/biz/stomping-grounds-ames?adjust_creative=RyNyMQd7rvZeoBrbuIrc1w&utm_campaign=yelp_api_v3&utm_medium=api_v3_business_search&utm_source=RyNyMQd7rvZeoBrbuIrc1w", "review_count": 141, "categories": [{"alias": "bars", "title": "Bars"}, {"alias": "modern_european", "title": "Modern European"}, {"alias": "creperies", "title": "Creperies"}], "rating": 4.0, "coordinates": {"latitude": 42.020144708973795, "longitude": -93.65048367055226}, "transactions": ["delivery"], "price": "$$", "location": {"address1": "303 Welch Ave", "address2": "Ste 105", "address3": "", "city": "Ames", "zip_code": "50014", "country": "US", "state": "IA", "display_address": ["303 Welch Ave", "Ste 105", "Ames, IA 50014"]}, "phone": "+15152925258", "display_phone": "(515) 292-5258", "distance": 1888.138604417061}], "total": 75, "region": {"center": {"longitude": -93.62823486328125, "latitude": 42.024036976644524}}}